{
"type": "FeatureCollection",
"features": [
{ "type": "Feature", "properties": { "PERMANENT_": "{4C565B17-0940-4912-907A-1FCDD4A2FCB6}", "SOURCE_FEA": null, "SOURCE_DAT": "{CC44F99C-6658-4584-B606-926E498D5C82}", "SOURCE_D_1": "TNMC VWE DB Build - Vol Update", "SOURCE_ORI": "U.S. Geological Survey", "DATA_SECUR": 5, "DISTRIBUTI": "E4", "LOADDATE": "2016\/08\/12", "FTYPE": 740, "FCODE": 74034, "NAME": "Hays County Law Enforcement Center Sheriff's Office", "ISLANDMARK": 2, "POINTLOCAT": 1, "ADMINTYPE": 5, "ADDRESSBUI": null, "ADDRESS": "1307 Uhland Road", "CITY": "San Marcos", "STATE": "TX", "ZIPCODE": "78666", "GNIS_ID": "2739269", "FOOT_ID": null, "COMPLEX_ID": null }, "geometry": { "type": "Point", "coordinates": [ -97.904065062639972, 29.896203726511828 ] } },
{ "type": "Feature", "properties": { "PERMANENT_": "{20E3D957-05A3-450A-B9C8-B93DDE8720BA}", "SOURCE_FEA": "480001010808", "SOURCE_DAT": "{092B06A5-744D-461B-BB91-876E463350D0}", "SOURCE_D_1": "TNMC VWE DB Build - Vol Update Schools", "SOURCE_ORI": "Oak Ridge National Laboratory, Geographic Information Sciences and Technology Group", "DATA_SECUR": 5, "DISTRIBUTI": "E4", "LOADDATE": "2016\/08\/12", "FTYPE": 730, "FCODE": 73003, "NAME": "Blanco Vista Elementary School", "ISLANDMARK": 2, "POINTLOCAT": 1, "ADMINTYPE": null, "ADDRESSBUI": null, "ADDRESS": "2951 Blanco Vista Boulevard", "CITY": "Kyle", "STATE": "TX", "ZIPCODE": "78666", "GNIS_ID": null, "FOOT_ID": null, "COMPLEX_ID": null }, "geometry": { "type": "Point", "coordinates": [ -97.896229700152162, 29.946716100391768 ] } },
{ "type": "Feature", "properties": { "PERMANENT_": "957b61ca-a24c-41ac-b927-b7da515d6ade", "SOURCE_FEA": "10409923", "SOURCE_DAT": "{43CAF7AD-177F-413D-90DA-C94E9789FEC8}", "SOURCE_D_1": "NSD TNMC VWE Database Build - Reviewed features", "SOURCE_ORI": "U.S. Geological Survey", "DATA_SECUR": 5, "DISTRIBUTI": "E4", "LOADDATE": "2009\/07\/06", "FTYPE": 740, "FCODE": 74026, "NAME": "Blanco Volunteer Fire Department", "ISLANDMARK": 2, "POINTLOCAT": 1, "ADMINTYPE": null, "ADDRESSBUI": null, "ADDRESS": "503 Pecan Street", "CITY": "Blanco", "STATE": "TX", "ZIPCODE": "78606", "GNIS_ID": "2551124", "FOOT_ID": null, "COMPLEX_ID": null }, "geometry": { "type": "Point", "coordinates": [ -98.420866300379487, 30.098919201197134 ] } },
{ "type": "Feature", "properties": { "PERMANENT_": "af1d769d-fbe1-4961-a3d0-514ce9b2fe12", "SOURCE_FEA": "10410432", "SOURCE_DAT": "4f7eb305-b36a-4bae-8116-c78c4d4bb1d4", "SOURCE_D_1": "730 TNMC Update 10\/20\/2016 13:24:06", "SOURCE_ORI": "Oak Ridge National Laboratory, Geographic Information Sciences and Technology Group", "DATA_SECUR": 5, "DISTRIBUTI": "E4", "LOADDATE": "2016\/10\/20", "FTYPE": 740, "FCODE": 74026, "NAME": "Wimberley Volunteer Fire Department Central Station", "ISLANDMARK": 2, "POINTLOCAT": 4, "ADMINTYPE": 0, "ADDRESSBUI": null, "ADDRESS": "111 Green Acres Drive", "CITY": "Wimberley", "STATE": "TX", "ZIPCODE": "78676", "GNIS_ID": "2552486", "FOOT_ID": null, "COMPLEX_ID": null }, "geometry": { "type": "Point", "coordinates": [ -98.106086657118112, 30.001883124264452 ] } },
{ "type": "Feature", "properties": { "PERMANENT_": "{FCAA66C0-87E3-46D0-9134-B9136378529D}", "SOURCE_FEA": null, "SOURCE_DAT": "{43CAF7AD-177F-413D-90DA-C94E9789FEC8}", "SOURCE_D_1": "NSD TNMC VWE Database Build - Reviewed features", "SOURCE_ORI": "U.S. Geological Survey", "DATA_SECUR": 5, "DISTRIBUTI": "E4", "LOADDATE": "2013\/12\/16", "FTYPE": 740, "FCODE": 74034, "NAME": "Blanco Police Department", "ISLANDMARK": 2, "POINTLOCAT": 1, "ADMINTYPE": 6, "ADDRESSBUI": null, "ADDRESS": "305 Blanco Avenue", "CITY": "Blanco", "STATE": "TX", "ZIPCODE": "78606", "GNIS_ID": "2750568", "FOOT_ID": null, "COMPLEX_ID": null }, "geometry": { "type": "Point", "coordinates": [ -98.416507296219606, 30.089615067878242 ] } },
{ "type": "Feature", "properties": { "PERMANENT_": "{2F405026-54F4-48B9-BCC5-96C9BCD42E32}", "SOURCE_FEA": "480013208279", "SOURCE_DAT": "{CC19ABE0-361F-4846-B852-AA57C04368C8}", "SOURCE_D_1": "NSD TNMC VWE Database Build - Reviewed Schools", "SOURCE_ORI": "Oak Ridge National Laboratory, Geographic Information Sciences and Technology Group", "DATA_SECUR": 5, "DISTRIBUTI": "E4", "LOADDATE": "2011\/12\/20", "FTYPE": 730, "FCODE": 73005, "NAME": "KATHERINE ANNE PORTER SCHOOL", "ISLANDMARK": 2, "POINTLOCAT": 1, "ADMINTYPE": null, "ADDRESSBUI": null, "ADDRESS": "515 FM 2325", "CITY": "Wimberley", "STATE": "TX", "ZIPCODE": "78676", "GNIS_ID": null, "FOOT_ID": null, "COMPLEX_ID": null }, "geometry": { "type": "Point", "coordinates": [ -98.106903724825145, 30.002943125304455 ] } },
{ "type": "Feature", "properties": { "PERMANENT_": "{17506C22-F9B9-4B15-A23C-B134724BA196}", "SOURCE_FEA": "A9504038", "SOURCE_DAT": "{092B06A5-744D-461B-BB91-876E463350D0}", "SOURCE_D_1": "TNMC VWE DB Build - Vol Update Schools", "SOURCE_ORI": "Oak Ridge National Laboratory, Geographic Information Sciences and Technology Group", "DATA_SECUR": 5, "DISTRIBUTI": "E4", "LOADDATE": "2016\/08\/12", "FTYPE": 730, "FCODE": 73002, "NAME": "HILL COUNTRY CHRISTIAN SCHOOL OF SAN MARCOS", "ISLANDMARK": 2, "POINTLOCAT": 1, "ADMINTYPE": null, "ADDRESSBUI": null, "ADDRESS": "1401 Davis Ln", "CITY": "San Marcos", "STATE": "TX", "ZIPCODE": "78666", "GNIS_ID": null, "FOOT_ID": null, "COMPLEX_ID": null }, "geometry": { "type": "Point", "coordinates": [ -97.907900700134064, 29.888193300482556 ] } },
{ "type": "Feature", "properties": { "PERMANENT_": "{23A57ABA-847A-49C5-A219-BC66BDE4374E}", "SOURCE_FEA": "480000907342", "SOURCE_DAT": "{092B06A5-744D-461B-BB91-876E463350D0}", "SOURCE_D_1": "TNMC VWE DB Build - Vol Update Schools", "SOURCE_ORI": "Oak Ridge National Laboratory, Geographic Information Sciences and Technology Group", "DATA_SECUR": 5, "DISTRIBUTI": "E4", "LOADDATE": "2015\/03\/30", "FTYPE": 730, "FCODE": 73004, "NAME": "Danforth Junior High School", "ISLANDMARK": 2, "POINTLOCAT": 1, "ADMINTYPE": null, "ADDRESSBUI": null, "ADDRESS": "200 Texan Boulevard", "CITY": "Wimberley", "STATE": "TX", "ZIPCODE": "78676", "GNIS_ID": null, "FOOT_ID": null, "COMPLEX_ID": null }, "geometry": { "type": "Point", "coordinates": [ -98.113745747731173, 30.003131000304165 ] } },
{ "type": "Feature", "properties": { "PERMANENT_": "{D2169E46-65AB-4A71-806D-66CC0EF1816C}", "SOURCE_FEA": "480000906499", "SOURCE_DAT": "{092B06A5-744D-461B-BB91-876E463350D0}", "SOURCE_D_1": "TNMC VWE DB Build - Vol Update Schools", "SOURCE_ORI": "Oak Ridge National Laboratory, Geographic Information Sciences and Technology Group", "DATA_SECUR": 5, "DISTRIBUTI": "E4", "LOADDATE": "2015\/03\/30", "FTYPE": 730, "FCODE": 73003, "NAME": "Scudder Primary School", "ISLANDMARK": 2, "POINTLOCAT": 1, "ADMINTYPE": null, "ADDRESSBUI": null, "ADDRESS": "400 Green Acres Drive", "CITY": "Wimberley", "STATE": "TX", "ZIPCODE": "78676", "GNIS_ID": "2006636", "FOOT_ID": null, "COMPLEX_ID": null }, "geometry": { "type": "Point", "coordinates": [ -98.110630415444348, 30.002509376346779 ] } },
{ "type": "Feature", "properties": { "PERMANENT_": "{F2C60B6F-E059-41F7-911E-2B017900E22F}", "SOURCE_FEA": null, "SOURCE_DAT": "{43CAF7AD-177F-413D-90DA-C94E9789FEC8}", "SOURCE_D_1": "NSD TNMC VWE Database Build - Reviewed features", "SOURCE_ORI": "U.S. Geological Survey", "DATA_SECUR": 5, "DISTRIBUTI": "E4", "LOADDATE": "2013\/12\/04", "FTYPE": 740, "FCODE": 74034, "NAME": "Hays County Sheriff's Office Wimberley - Junction Substation", "ISLANDMARK": 2, "POINTLOCAT": 4, "ADMINTYPE": 5, "ADDRESSBUI": null, "ADDRESS": "9595 Ranch Road 12", "CITY": "Wimberley", "STATE": "TX", "ZIPCODE": "78676", "GNIS_ID": "2739488", "FOOT_ID": null, "COMPLEX_ID": null }, "geometry": { "type": "Point", "coordinates": [ -98.101648998791632, 29.999737497184412 ] } },
{ "type": "Feature", "properties": { "PERMANENT_": "{88894401-51AB-4AE9-B0DE-678217D06411}", "SOURCE_FEA": "A9300989", "SOURCE_DAT": "{092B06A5-744D-461B-BB91-876E463350D0}", "SOURCE_D_1": "TNMC VWE DB Build - Vol Update Schools", "SOURCE_ORI": "Oak Ridge National Laboratory, Geographic Information Sciences and Technology Group", "DATA_SECUR": 5, "DISTRIBUTI": "E4", "LOADDATE": "2014\/06\/25", "FTYPE": 730, "FCODE": 73003, "NAME": "Saint Stephen's Episcopal School", "ISLANDMARK": 2, "POINTLOCAT": 1, "ADMINTYPE": null, "ADDRESSBUI": null, "ADDRESS": "6000 Farm Market 2337", "CITY": "Wimberley", "STATE": "TX", "ZIPCODE": "78676", "GNIS_ID": null, "FOOT_ID": null, "COMPLEX_ID": null }, "geometry": { "type": "Point", "coordinates": [ -98.036314280143074, 30.032232940884001 ] } },
{ "type": "Feature", "properties": { "PERMANENT_": "8b3a7193-eeda-4251-a550-b415f866fc11", "SOURCE_FEA": "10410433", "SOURCE_DAT": "4f7eb305-b36a-4bae-8116-c78c4d4bb1d4", "SOURCE_D_1": "730 TNMC Update 10\/20\/2016 13:24:06", "SOURCE_ORI": "Oak Ridge National Laboratory, Geographic Information Sciences and Technology Group", "DATA_SECUR": 5, "DISTRIBUTI": "E4", "LOADDATE": "2016\/10\/20", "FTYPE": 740, "FCODE": 74026, "NAME": "Wimberley Volunteer Fire Department Jacobs Well Station", "ISLANDMARK": 2, "POINTLOCAT": 4, "ADMINTYPE": 0, "ADDRESSBUI": null, "ADDRESS": "Pleasant Valley Road and Jacobs Well Road", "CITY": "Wimberley", "STATE": "TX", "ZIPCODE": "78676", "GNIS_ID": "2552497", "FOOT_ID": null, "COMPLEX_ID": null }, "geometry": { "type": "Point", "coordinates": [ -98.125846782087422, 30.02919253776372 ] } },
{ "type": "Feature", "properties": { "PERMANENT_": "{4A162CEF-1C2D-4344-AD5B-602A18CFFB73}", "SOURCE_FEA": "481032000514", "SOURCE_DAT": "{CC19ABE0-361F-4846-B852-AA57C04368C8}", "SOURCE_D_1": "NSD TNMC VWE Database Build - Reviewed Schools", "SOURCE_ORI": "Oak Ridge National Laboratory, Geographic Information Sciences and Technology Group", "DATA_SECUR": 5, "DISTRIBUTI": "E4", "LOADDATE": "2011\/12\/20", "FTYPE": 730, "FCODE": 73002, "NAME": "BLANCO EL", "ISLANDMARK": 2, "POINTLOCAT": 1, "ADMINTYPE": null, "ADDRESSBUI": null, "ADDRESS": "814 ELEVENTH ST", "CITY": "Blanco", "STATE": "TX", "ZIPCODE": "78606", "GNIS_ID": null, "FOOT_ID": null, "COMPLEX_ID": null }, "geometry": { "type": "Point", "coordinates": [ -98.421757369128102, 30.105346216812165 ] } },
{ "type": "Feature", "properties": { "PERMANENT_": "{C9D20E61-3CF2-4F16-A0CB-722B9EF7C16A}", "SOURCE_FEA": "480000905246", "SOURCE_DAT": "{CC19ABE0-361F-4846-B852-AA57C04368C8}", "SOURCE_D_1": "NSD TNMC VWE Database Build - Reviewed Schools", "SOURCE_ORI": "Oak Ridge National Laboratory, Geographic Information Sciences and Technology Group", "DATA_SECUR": 5, "DISTRIBUTI": "E4", "LOADDATE": "2011\/12\/20", "FTYPE": 730, "FCODE": 73002, "NAME": "BOWEN INT", "ISLANDMARK": 2, "POINTLOCAT": 1, "ADMINTYPE": null, "ADDRESSBUI": null, "ADDRESS": "14501 RANCH RD 12 N", "CITY": "Wimberley", "STATE": "TX", "ZIPCODE": "78676", "GNIS_ID": null, "FOOT_ID": null, "COMPLEX_ID": null }, "geometry": { "type": "Point", "coordinates": [ -98.102721101914995, 30.002089530514127 ] } },
{ "type": "Feature", "properties": { "PERMANENT_": "{06FFAF15-D132-40CE-8E02-B3B7FFBC5D1B}", "SOURCE_FEA": "481032000515", "SOURCE_DAT": "{CC19ABE0-361F-4846-B852-AA57C04368C8}", "SOURCE_D_1": "NSD TNMC VWE Database Build - Reviewed Schools", "SOURCE_ORI": "Oak Ridge National Laboratory, Geographic Information Sciences and Technology Group", "DATA_SECUR": 5, "DISTRIBUTI": "E4", "LOADDATE": "2011\/12\/20", "FTYPE": 730, "FCODE": 73005, "NAME": "BLANCO H S", "ISLANDMARK": 2, "POINTLOCAT": 1, "ADMINTYPE": null, "ADDRESSBUI": null, "ADDRESS": "1215 FOURTH ST", "CITY": "Blanco", "STATE": "TX", "ZIPCODE": "78606", "GNIS_ID": null, "FOOT_ID": null, "COMPLEX_ID": null }, "geometry": { "type": "Point", "coordinates": [ -98.431324042029928, 30.099654961612657 ] } },
{ "type": "Feature", "properties": { "PERMANENT_": "{008AD831-6706-4557-9148-8CB4C1C1B23A}", "SOURCE_FEA": "480000906198", "SOURCE_DAT": "{092B06A5-744D-461B-BB91-876E463350D0}", "SOURCE_D_1": "TNMC VWE DB Build - Vol Update Schools", "SOURCE_ORI": "Oak Ridge National Laboratory, Geographic Information Sciences and Technology Group", "DATA_SECUR": 5, "DISTRIBUTI": "E4", "LOADDATE": "2015\/03\/30", "FTYPE": 730, "FCODE": 73005, "NAME": "Wimberley High School", "ISLANDMARK": 2, "POINTLOCAT": 1, "ADMINTYPE": null, "ADDRESSBUI": null, "ADDRESS": "100 Carney Lane", "CITY": "Wimberley", "STATE": "TX", "ZIPCODE": "78676", "GNIS_ID": "2006638", "FOOT_ID": null, "COMPLEX_ID": null }, "geometry": { "type": "Point", "coordinates": [ -98.117164707100869, 30.005163952384351 ] } },
{ "type": "Feature", "properties": { "PERMANENT_": "1924bf10-72c3-409a-a04d-2a0b26f2336c", "SOURCE_FEA": null, "SOURCE_DAT": "1aa9ea2e-7dc0-410b-a853-718bce09e28a", "SOURCE_D_1": "740 TNMC Update 12\/11\/2016", "SOURCE_ORI": "U.S. Geological Survey", "DATA_SECUR": 0, "DISTRIBUTI": "E4", "LOADDATE": "2016\/12\/11", "FTYPE": 740, "FCODE": 74026, "NAME": "San Marcos Fire Department Station 5", "ISLANDMARK": 2, "POINTLOCAT": 1, "ADMINTYPE": 0, "ADDRESSBUI": null, "ADDRESS": "100 Carlson Circle", "CITY": "San Marcos", "STATE": "TX", "ZIPCODE": "78666-7064", "GNIS_ID": null, "FOOT_ID": null, "COMPLEX_ID": null }, "geometry": { "type": "Point", "coordinates": [ -97.904540995972582, 29.905771838996941 ] } },
{ "type": "Feature", "properties": { "PERMANENT_": "{13B6175F-9ED8-4894-B4B8-7BB077F7D293}", "SOURCE_FEA": "481032000419", "SOURCE_DAT": "{CC19ABE0-361F-4846-B852-AA57C04368C8}", "SOURCE_D_1": "NSD TNMC VWE Database Build - Reviewed Schools", "SOURCE_ORI": "Oak Ridge National Laboratory, Geographic Information Sciences and Technology Group", "DATA_SECUR": 5, "DISTRIBUTI": "E4", "LOADDATE": "2011\/12\/20", "FTYPE": 730, "FCODE": 73004, "NAME": "BLANCO MIDDLE", "ISLANDMARK": 2, "POINTLOCAT": 1, "ADMINTYPE": null, "ADDRESSBUI": null, "ADDRESS": "1500 ROCKY RD", "CITY": "Blanco", "STATE": "TX", "ZIPCODE": "78606", "GNIS_ID": null, "FOOT_ID": null, "COMPLEX_ID": null }, "geometry": { "type": "Point", "coordinates": [ -98.43027213890656, 30.106422205352203 ] } },
{ "type": "Feature", "properties": { "PERMANENT_": "{3A8049AF-4CF1-43FC-B918-B85B671EDBFF}", "SOURCE_FEA": "481473010533", "SOURCE_DAT": "{CC19ABE0-361F-4846-B852-AA57C04368C8}", "SOURCE_D_1": "NSD TNMC VWE Database Build - Reviewed Schools", "SOURCE_ORI": "Oak Ridge National Laboratory, Geographic Information Sciences and Technology Group", "DATA_SECUR": 5, "DISTRIBUTI": "E4", "LOADDATE": "2011\/12\/20", "FTYPE": 730, "FCODE": 73002, "NAME": "CANYON LAKE HIGH SCHOOL", "ISLANDMARK": 2, "POINTLOCAT": 1, "ADMINTYPE": null, "ADDRESSBUI": null, "ADDRESS": "8555 FM 32", "CITY": "Fischer", "STATE": "TX", "ZIPCODE": "78623", "GNIS_ID": null, "FOOT_ID": null, "COMPLEX_ID": null }, "geometry": { "type": "Point", "coordinates": [ -98.214438564241561, 29.943841970187862 ] } },
{ "type": "Feature", "properties": { "PERMANENT_": "{9E88E696-BE7E-490B-9A52-1627A37553F7}", "SOURCE_FEA": null, "SOURCE_DAT": "{43CAF7AD-177F-413D-90DA-C94E9789FEC8}", "SOURCE_D_1": "NSD TNMC VWE Database Build - Reviewed features", "SOURCE_ORI": "U.S. Geological Survey", "DATA_SECUR": 5, "DISTRIBUTI": "E4", "LOADDATE": "2013\/12\/04", "FTYPE": 740, "FCODE": 74034, "NAME": "Hays County Sheriff's Office Wimberley - Lions Field Substation", "ISLANDMARK": 2, "POINTLOCAT": 4, "ADMINTYPE": 5, "ADDRESSBUI": null, "ADDRESS": "650 Farm to Market Road 2325", "CITY": "Wimberley", "STATE": "TX", "ZIPCODE": "78676", "GNIS_ID": "2739414", "FOOT_ID": null, "COMPLEX_ID": null }, "geometry": { "type": "Point", "coordinates": [ -98.107372264407729, 30.003625639886764 ] } }
]
}
