{
"type": "FeatureCollection",
"features": [
{ "type": "Feature", "properties": { "OBJECTID_1": 1, "OBJECTID": 4, "Permanent_": "ccf78e80-e0a9-4aea-a87a-20c57961ed24", "Source_Fea": "10169074", "Source_Dat": "{43CAF7AD-177F-413D-90DA-C94E9789FEC8}", "Source_D_1": "NSD TNMC VWE Database Build - Reviewed features", "Source_Ori": "U.S. Geological Survey", "Data_Secur": 5, "Distributi": "E4", "LoadDate": "2009\/07\/06", "FType": 740, "FCode": 74026, "Name": "Kendalia Volunteer Fire Department", "IsLandmark": 2, "PointLocat": 1, "AdminType": 0, "AddressBui": null, "Address": "2607 Farm To Market Road 473", "City": "Kendalia", "State": "TX", "Zipcode": "78027", "GNIS_ID": "2045910", "Foot_ID": null, "Complex_ID": null, "FType_1": 740, "FCode_1": 74026 }, "geometry": { "type": "Point", "coordinates": [ -98.521829004804715, 29.968445330387738 ] } },
{ "type": "Feature", "properties": { "OBJECTID_1": 2, "OBJECTID": 6, "Permanent_": "205a2389-ab25-4d45-b578-cc8f9e242532", "Source_Fea": "10157031", "Source_Dat": "{43CAF7AD-177F-413D-90DA-C94E9789FEC8}", "Source_D_1": "NSD TNMC VWE Database Build - Reviewed features", "Source_Ori": "U.S. Geological Survey", "Data_Secur": 5, "Distributi": "E4", "LoadDate": "2009\/12\/24", "FType": 740, "FCode": 74026, "Name": "Bracken Volunteer Fire Department Station 2", "IsLandmark": 2, "PointLocat": 1, "AdminType": 0, "AddressBui": null, "Address": "6789 Farm To Market Road 482", "City": "New Braunfels", "State": "TX", "Zipcode": "78132", "GNIS_ID": "2552556", "Foot_ID": null, "Complex_ID": null, "FType_1": 740, "FCode_1": 74026 }, "geometry": { "type": "Point", "coordinates": [ -98.228243017001603, 29.642886976153079 ] } },
{ "type": "Feature", "properties": { "OBJECTID_1": 3, "OBJECTID": 8, "Permanent_": "{E33619A2-A03D-4625-8AF3-A062267E2799}", "Source_Fea": null, "Source_Dat": "{CC44F99C-6658-4584-B606-926E498D5C82}", "Source_D_1": "TNMC VWE DB Build - Vol Update", "Source_Ori": "U.S. Geological Survey", "Data_Secur": 5, "Distributi": "E4", "LoadDate": "2016\/08\/12", "FType": 740, "FCode": 74034, "Name": "Comal County Sheriff's Office", "IsLandmark": 2, "PointLocat": 1, "AdminType": 5, "AddressBui": null, "Address": "3005 West San Antonio Street", "City": "New Braunfels", "State": "TX", "Zipcode": "78130-6999", "GNIS_ID": "2739286", "Foot_ID": null, "Complex_ID": null, "FType_1": 740, "FCode_1": 74034 }, "geometry": { "type": "Point", "coordinates": [ -98.151394299707135, 29.680395685112842 ] } },
{ "type": "Feature", "properties": { "OBJECTID_1": 4, "OBJECTID": 13, "Permanent_": "1bd370b9-4582-43a3-8227-6e8cdd2b898d", "Source_Fea": "10152675", "Source_Dat": "{43CAF7AD-177F-413D-90DA-C94E9789FEC8}", "Source_D_1": "NSD TNMC VWE Database Build - Reviewed features", "Source_Ori": "U.S. Geological Survey", "Data_Secur": 5, "Distributi": "E4", "LoadDate": "2009\/12\/24", "FType": 740, "FCode": 74026, "Name": "Canyon Lake Fire \/ Emergency Medical Service Station 1", "IsLandmark": 2, "PointLocat": 1, "AdminType": 0, "AddressBui": null, "Address": "160 Dove Street", "City": "Canyon Lake", "State": "TX", "Zipcode": "78133", "GNIS_ID": "2552544", "Foot_ID": null, "Complex_ID": null, "FType_1": 740, "FCode_1": 74026 }, "geometry": { "type": "Point", "coordinates": [ -98.191842918515817, 29.874697022649514 ] } },
{ "type": "Feature", "properties": { "OBJECTID_1": 5, "OBJECTID": 16, "Permanent_": "0da1885c-7a62-4861-8a7d-f0c5cd82ff36", "Source_Fea": null, "Source_Dat": "1aa9ea2e-7dc0-410b-a853-718bce09e28a", "Source_D_1": "740 TNMC Update 12\/11\/2016", "Source_Ori": "U.S. Geological Survey", "Data_Secur": 0, "Distributi": "E4", "LoadDate": "2016\/12\/11", "FType": 740, "FCode": 74026, "Name": "San Marcos Fire Department Station 1", "IsLandmark": 2, "PointLocat": 1, "AdminType": 0, "AddressBui": null, "Address": "114 East Hutchison Street", "City": "San Marcos", "State": "TX", "Zipcode": "78666-5628", "GNIS_ID": null, "Foot_ID": null, "Complex_ID": null, "FType_1": 740, "FCode_1": 74026 }, "geometry": { "type": "Point", "coordinates": [ -97.941177367641387, 29.884038925556013 ] } },
{ "type": "Feature", "properties": { "OBJECTID_1": 6, "OBJECTID": 18, "Permanent_": "{4C565B17-0940-4912-907A-1FCDD4A2FCB6}", "Source_Fea": null, "Source_Dat": "{CC44F99C-6658-4584-B606-926E498D5C82}", "Source_D_1": "TNMC VWE DB Build - Vol Update", "Source_Ori": "U.S. Geological Survey", "Data_Secur": 5, "Distributi": "E4", "LoadDate": "2016\/08\/12", "FType": 740, "FCode": 74034, "Name": "Hays County Law Enforcement Center Sheriff's Office", "IsLandmark": 2, "PointLocat": 1, "AdminType": 5, "AddressBui": null, "Address": "1307 Uhland Road", "City": "San Marcos", "State": "TX", "Zipcode": "78666", "GNIS_ID": "2739269", "Foot_ID": null, "Complex_ID": null, "FType_1": 740, "FCode_1": 74034 }, "geometry": { "type": "Point", "coordinates": [ -97.904072711486435, 29.896208863548281 ] } },
{ "type": "Feature", "properties": { "OBJECTID_1": 7, "OBJECTID": 21, "Permanent_": "970556ff-d9fb-4553-99bd-5e206907fee9", "Source_Fea": "10410541", "Source_Dat": "{43CAF7AD-177F-413D-90DA-C94E9789FEC8}", "Source_D_1": "NSD TNMC VWE Database Build - Reviewed features", "Source_Ori": "U.S. Geological Survey", "Data_Secur": 5, "Distributi": "E4", "LoadDate": "2009\/12\/24", "FType": 740, "FCode": 74026, "Name": "Uhland Volunteer Fire Department", "IsLandmark": 2, "PointLocat": 4, "AdminType": 0, "AddressBui": null, "Address": "8950 Camino Real Road", "City": "Uhland", "State": "TX", "Zipcode": "78640", "GNIS_ID": "2552489", "Foot_ID": null, "Complex_ID": null, "FType_1": 740, "FCode_1": 74026 }, "geometry": { "type": "Point", "coordinates": [ -97.784142221586194, 29.959338054307807 ] } },
{ "type": "Feature", "properties": { "OBJECTID_1": 8, "OBJECTID": 27, "Permanent_": "{62BBA678-8D0D-4EA6-AAE6-965D5C7A1F23}", "Source_Fea": null, "Source_Dat": "{43CAF7AD-177F-413D-90DA-C94E9789FEC8}", "Source_D_1": "NSD TNMC VWE Database Build - Reviewed features", "Source_Ori": "U.S. Geological Survey", "Data_Secur": 5, "Distributi": "E4", "LoadDate": "2013\/12\/04", "FType": 740, "FCode": 74034, "Name": "Hays County Sheriff's Office Niederwald Substation", "IsLandmark": 2, "PointLocat": 1, "AdminType": 5, "AddressBui": null, "Address": "13851 Camino Real", "City": "Niederwald", "State": "TX", "Zipcode": "78640", "GNIS_ID": "2739485", "Foot_ID": null, "Complex_ID": null, "FType_1": 740, "FCode_1": 74034 }, "geometry": { "type": "Point", "coordinates": [ -97.729832077788103, 30.008345697296136 ] } },
{ "type": "Feature", "properties": { "OBJECTID_1": 9, "OBJECTID": 28, "Permanent_": "6a5abda9-6043-4d9f-b307-da6b937f4e08", "Source_Fea": "10415528", "Source_Dat": "{43CAF7AD-177F-413D-90DA-C94E9789FEC8}", "Source_D_1": "NSD TNMC VWE Database Build - Reviewed features", "Source_Ori": "U.S. Geological Survey", "Data_Secur": 5, "Distributi": "E4", "LoadDate": "2009\/12\/24", "FType": 740, "FCode": 74026, "Name": "Bulverde Fire Department Station 3", "IsLandmark": 2, "PointLocat": 4, "AdminType": 0, "AddressBui": null, "Address": "Nixon Drive", "City": "Boerne", "State": "TX", "Zipcode": "78006", "GNIS_ID": "2552440", "Foot_ID": null, "Complex_ID": null, "FType_1": 740, "FCode_1": 74026 }, "geometry": { "type": "Point", "coordinates": [ -98.590811812615016, 29.778987990503424 ] } },
{ "type": "Feature", "properties": { "OBJECTID_1": 10, "OBJECTID": 31, "Permanent_": "957b61ca-a24c-41ac-b927-b7da515d6ade", "Source_Fea": "10409923", "Source_Dat": "{43CAF7AD-177F-413D-90DA-C94E9789FEC8}", "Source_D_1": "NSD TNMC VWE Database Build - Reviewed features", "Source_Ori": "U.S. Geological Survey", "Data_Secur": 5, "Distributi": "E4", "LoadDate": "2009\/07\/06", "FType": 740, "FCode": 74026, "Name": "Blanco Volunteer Fire Department", "IsLandmark": 2, "PointLocat": 1, "AdminType": 0, "AddressBui": null, "Address": "503 Pecan Street", "City": "Blanco", "State": "TX", "Zipcode": "78606", "GNIS_ID": "2551124", "Foot_ID": null, "Complex_ID": null, "FType_1": 740, "FCode_1": 74026 }, "geometry": { "type": "Point", "coordinates": [ -98.42087408597024, 30.098924359771445 ] } },
{ "type": "Feature", "properties": { "OBJECTID_1": 11, "OBJECTID": 36, "Permanent_": "13ad1e50-986c-453d-9ec7-8405588eaa1a", "Source_Fea": "10152707", "Source_Dat": "{43CAF7AD-177F-413D-90DA-C94E9789FEC8}", "Source_D_1": "NSD TNMC VWE Database Build - Reviewed features", "Source_Ori": "U.S. Geological Survey", "Data_Secur": 5, "Distributi": "E4", "LoadDate": "2009\/12\/24", "FType": 740, "FCode": 74026, "Name": "New Braunfels Fire Department Station 5", "IsLandmark": 2, "PointLocat": 1, "AdminType": 0, "AddressBui": null, "Address": "1250 West County Line Road", "City": "New Braunfels", "State": "TX", "Zipcode": "78130", "GNIS_ID": "2552652", "Foot_ID": null, "Complex_ID": null, "FType_1": 740, "FCode_1": 74026 }, "geometry": { "type": "Point", "coordinates": [ -98.121625192248814, 29.670095785692013 ] } },
{ "type": "Feature", "properties": { "OBJECTID_1": 12, "OBJECTID": 41, "Permanent_": "af1d769d-fbe1-4961-a3d0-514ce9b2fe12", "Source_Fea": "10410432", "Source_Dat": "4f7eb305-b36a-4bae-8116-c78c4d4bb1d4", "Source_D_1": "730 TNMC Update 10\/20\/2016 13:24:06", "Source_Ori": "Oak Ridge National Laboratory, Geographic Information Sciences and Technology Group", "Data_Secur": 5, "Distributi": "E4", "LoadDate": "2016\/10\/20", "FType": 740, "FCode": 74026, "Name": "Wimberley Volunteer Fire Department Central Station", "IsLandmark": 2, "PointLocat": 4, "AdminType": 0, "AddressBui": null, "Address": "111 Green Acres Drive", "City": "Wimberley", "State": "TX", "Zipcode": "78676", "GNIS_ID": "2552486", "Foot_ID": null, "Complex_ID": null, "FType_1": 740, "FCode_1": 74026 }, "geometry": { "type": "Point", "coordinates": [ -98.106094360965926, 30.001888274524276 ] } },
{ "type": "Feature", "properties": { "OBJECTID_1": 13, "OBJECTID": 42, "Permanent_": "feb69b31-14cb-49e0-9aa6-c96c76648182", "Source_Fea": "9999999999", "Source_Dat": "{CC44F99C-6658-4584-B606-926E498D5C82}", "Source_D_1": "TNMC VWE DB Build - Vol Update", "Source_Ori": "U.S. Geological Survey", "Data_Secur": 5, "Distributi": "E4", "LoadDate": "2016\/08\/12", "FType": 740, "FCode": 74026, "Name": "North Hays County Volunteer Fire Department Station 71", "IsLandmark": 2, "PointLocat": 4, "AdminType": 0, "AddressBui": null, "Address": "400 Sportsplex Drive", "City": "Dripping Springs", "State": "TX", "Zipcode": "78620", "GNIS_ID": "2552249", "Foot_ID": null, "Complex_ID": null, "FType_1": 740, "FCode_1": 74026 }, "geometry": { "type": "Point", "coordinates": [ -98.096999009896365, 30.196072688503818 ] } },
{ "type": "Feature", "properties": { "OBJECTID_1": 14, "OBJECTID": 43, "Permanent_": "e397bb74-5f38-426a-8aaa-807d54455f64", "Source_Fea": null, "Source_Dat": "1aa9ea2e-7dc0-410b-a853-718bce09e28a", "Source_D_1": "740 TNMC Update 12\/11\/2016", "Source_Ori": "U.S. Geological Survey", "Data_Secur": 0, "Distributi": "E4", "LoadDate": "2016\/12\/11", "FType": 740, "FCode": 74026, "Name": "South Hays Fire Department Station 11", "IsLandmark": 2, "PointLocat": 1, "AdminType": 0, "AddressBui": null, "Address": "3528 Hunter Road", "City": "San Marcos", "State": "TX", "Zipcode": "78666-9349", "GNIS_ID": null, "Foot_ID": null, "Complex_ID": null, "FType_1": 740, "FCode_1": 74026 }, "geometry": { "type": "Point", "coordinates": [ -97.995101928910856, 29.833105087629747 ] } },
{ "type": "Feature", "properties": { "OBJECTID_1": 15, "OBJECTID": 46, "Permanent_": "{B5F33660-85A5-4860-902D-6FB3122B32ED}", "Source_Fea": "480005309121", "Source_Dat": "{CC44F99C-6658-4584-B606-926E498D5C82}", "Source_D_1": "TNMC VWE DB Build - Vol Update", "Source_Ori": "U.S. Geological Survey", "Data_Secur": 5, "Distributi": "E4", "LoadDate": "2016\/08\/12", "FType": 740, "FCode": 74036, "Name": "HAYS CO JUVENILE CENTER", "IsLandmark": 0, "PointLocat": 1, "AdminType": 0, "AddressBui": null, "Address": "2250 CLOVIS BARKER ROAD", "City": "SAN MARCOS", "State": "TX", "Zipcode": "78666", "GNIS_ID": null, "Foot_ID": null, "Complex_ID": null, "FType_1": 740, "FCode_1": 74036 }, "geometry": { "type": "Point", "coordinates": [ -97.945772855632754, 29.832338122406497 ] } },
{ "type": "Feature", "properties": { "OBJECTID_1": 16, "OBJECTID": 53, "Permanent_": "eca54e84-7e03-4f94-a85e-ab7377d73db3", "Source_Fea": "10410304", "Source_Dat": "{43CAF7AD-177F-413D-90DA-C94E9789FEC8}", "Source_D_1": "NSD TNMC VWE Database Build - Reviewed features", "Source_Ori": "U.S. Geological Survey", "Data_Secur": 5, "Distributi": "E4", "LoadDate": "2009\/12\/24", "FType": 740, "FCode": 74026, "Name": "Buda Volunteer Fire Department Station 1", "IsLandmark": 2, "PointLocat": 4, "AdminType": 0, "AddressBui": null, "Address": "209 Farm To Market Road 2270", "City": "Buda", "State": "TX", "Zipcode": "78610", "GNIS_ID": "2552496", "Foot_ID": null, "Complex_ID": null, "FType_1": 740, "FCode_1": 74026 }, "geometry": { "type": "Point", "coordinates": [ -97.846840942855181, 30.078656676064782 ] } },
{ "type": "Feature", "properties": { "OBJECTID_1": 17, "OBJECTID": 54, "Permanent_": "b5cda1c7-fb42-4666-851c-8f80afab50eb", "Source_Fea": "10144505", "Source_Dat": "{43CAF7AD-177F-413D-90DA-C94E9789FEC8}", "Source_D_1": "NSD TNMC VWE Database Build - Reviewed features", "Source_Ori": "U.S. Geological Survey", "Data_Secur": 5, "Distributi": "E4", "LoadDate": "2009\/07\/06", "FType": 740, "FCode": 74026, "Name": "Waring Volunteer Fire Department", "IsLandmark": 0, "PointLocat": 1, "AdminType": 0, "AddressBui": null, "Address": "3 Waring Road", "City": "Waring", "State": "TX", "Zipcode": "78074", "GNIS_ID": "2052444", "Foot_ID": null, "Complex_ID": null, "FType_1": 740, "FCode_1": 74026 }, "geometry": { "type": "Point", "coordinates": [ -98.803580451376718, 29.950393127440918 ] } },
{ "type": "Feature", "properties": { "OBJECTID_1": 18, "OBJECTID": 55, "Permanent_": "22ae7c42-49b4-4e9f-896d-4e4e58d5e42c", "Source_Fea": "9999999999", "Source_Dat": "{CC44F99C-6658-4584-B606-926E498D5C82}", "Source_D_1": "TNMC VWE DB Build - Vol Update", "Source_Ori": "U.S. Geological Survey", "Data_Secur": 5, "Distributi": "E4", "LoadDate": "2016\/08\/12", "FType": 740, "FCode": 74026, "Name": "Boerne Fire Department", "IsLandmark": 2, "PointLocat": 1, "AdminType": 0, "AddressBui": null, "Address": "726 North Main Street", "City": "Boerne", "State": "TX", "Zipcode": "78006", "GNIS_ID": "2041427", "Foot_ID": null, "Complex_ID": null, "FType_1": 740, "FCode_1": 74026 }, "geometry": { "type": "Point", "coordinates": [ -98.735684048879705, 29.800475588377765 ] } },
{ "type": "Feature", "properties": { "OBJECTID_1": 19, "OBJECTID": 56, "Permanent_": "{98D962A0-E17A-4838-BBC9-DABE71E84A57}", "Source_Fea": null, "Source_Dat": "{43CAF7AD-177F-413D-90DA-C94E9789FEC8}", "Source_D_1": "NSD TNMC VWE Database Build - Reviewed features", "Source_Ori": "U.S. Geological Survey", "Data_Secur": 5, "Distributi": "E4", "LoadDate": "2013\/12\/04", "FType": 740, "FCode": 74034, "Name": "Garden Ridge Police Department", "IsLandmark": 2, "PointLocat": 1, "AdminType": 6, "AddressBui": null, "Address": "9357 Schoenthal Road", "City": "San Antonio", "State": "TX", "Zipcode": "78266", "GNIS_ID": "2739312", "Foot_ID": null, "Complex_ID": null, "FType_1": 740, "FCode_1": 74034 }, "geometry": { "type": "Point", "coordinates": [ -98.301577166652862, 29.649698685945623 ] } },
{ "type": "Feature", "properties": { "OBJECTID_1": 20, "OBJECTID": 57, "Permanent_": "7a157cbb-fe52-43df-8f82-59fb170034d5", "Source_Fea": "10407811", "Source_Dat": "{43CAF7AD-177F-413D-90DA-C94E9789FEC8}", "Source_D_1": "NSD TNMC VWE Database Build - Reviewed features", "Source_Ori": "U.S. Geological Survey", "Data_Secur": 5, "Distributi": "E4", "LoadDate": "2009\/12\/24", "FType": 740, "FCode": 74026, "Name": "Spring Branch Volunteer Fire Department Station 2", "IsLandmark": 2, "PointLocat": 1, "AdminType": 0, "AddressBui": null, "Address": "180 Tanglewood Trail Court", "City": "Spring Branch", "State": "TX", "Zipcode": "78070", "GNIS_ID": "2552163", "Foot_ID": null, "Complex_ID": null, "FType_1": 740, "FCode_1": 74026 }, "geometry": { "type": "Point", "coordinates": [ -98.346880416697843, 29.942296783769621 ] } },
{ "type": "Feature", "properties": { "OBJECTID_1": 21, "OBJECTID": 58, "Permanent_": "{FCAA66C0-87E3-46D0-9134-B9136378529D}", "Source_Fea": null, "Source_Dat": "{43CAF7AD-177F-413D-90DA-C94E9789FEC8}", "Source_D_1": "NSD TNMC VWE Database Build - Reviewed features", "Source_Ori": "U.S. Geological Survey", "Data_Secur": 5, "Distributi": "E4", "LoadDate": "2013\/12\/16", "FType": 740, "FCode": 74034, "Name": "Blanco Police Department", "IsLandmark": 2, "PointLocat": 1, "AdminType": 6, "AddressBui": null, "Address": "305 Blanco Avenue", "City": "Blanco", "State": "TX", "Zipcode": "78606", "GNIS_ID": "2750568", "Foot_ID": null, "Complex_ID": null, "FType_1": 740, "FCode_1": 74034 }, "geometry": { "type": "Point", "coordinates": [ -98.416515080106819, 30.089620224793578 ] } },
{ "type": "Feature", "properties": { "OBJECTID_1": 22, "OBJECTID": 59, "Permanent_": "2872eca9-7769-4fd1-91a8-e0216fdb19ee", "Source_Fea": "10152845", "Source_Dat": "{43CAF7AD-177F-413D-90DA-C94E9789FEC8}", "Source_D_1": "NSD TNMC VWE Database Build - Reviewed features", "Source_Ori": "U.S. Geological Survey", "Data_Secur": 5, "Distributi": "E4", "LoadDate": "2009\/12\/24", "FType": 740, "FCode": 74026, "Name": "New Braunfels Fire Department Station 2", "IsLandmark": 2, "PointLocat": 1, "AdminType": 0, "AddressBui": null, "Address": "4120 State Highway 337 Loop", "City": "New Braunfels", "State": "TX", "Zipcode": "78130", "GNIS_ID": "2552183", "Foot_ID": null, "Complex_ID": null, "FType_1": 740, "FCode_1": 74026 }, "geometry": { "type": "Point", "coordinates": [ -98.155550389738664, 29.676861652543266 ] } },
{ "type": "Feature", "properties": { "OBJECTID_1": 23, "OBJECTID": 63, "Permanent_": "8d3c588a-14d0-4fd2-8a09-37b93921a06f", "Source_Fea": "10152679", "Source_Dat": "{43CAF7AD-177F-413D-90DA-C94E9789FEC8}", "Source_D_1": "NSD TNMC VWE Database Build - Reviewed features", "Source_Ori": "U.S. Geological Survey", "Data_Secur": 5, "Distributi": "E4", "LoadDate": "2009\/12\/24", "FType": 740, "FCode": 74026, "Name": "Canyon Lake Fire and Emergency Medical Service Station 4", "IsLandmark": 2, "PointLocat": 4, "AdminType": 0, "AddressBui": null, "Address": "1741 Skyline Drive", "City": "Canyon Lake", "State": "TX", "Zipcode": "78133", "GNIS_ID": "2054799", "Foot_ID": null, "Complex_ID": null, "FType_1": 740, "FCode_1": 74026 }, "geometry": { "type": "Point", "coordinates": [ -98.191701417386469, 29.846978817318643 ] } },
{ "type": "Feature", "properties": { "OBJECTID_1": 24, "OBJECTID": 67, "Permanent_": "b2a8e390-2881-4143-8e4c-4bad5c4d8479", "Source_Fea": "10410416", "Source_Dat": "{CC44F99C-6658-4584-B606-926E498D5C82}", "Source_D_1": "TNMC VWE DB Build - Vol Update", "Source_Ori": "U.S. Geological Survey", "Data_Secur": 5, "Distributi": "E4", "LoadDate": "2016\/08\/12", "FType": 740, "FCode": 74026, "Name": "North Hays County Emergency Services District 6", "IsLandmark": 2, "PointLocat": 4, "AdminType": 0, "AddressBui": null, "Address": "111 Ems Drive", "City": "Dripping Springs", "State": "TX", "Zipcode": "78620", "GNIS_ID": "2552490", "Foot_ID": null, "Complex_ID": null, "FType_1": 740, "FCode_1": 74026 }, "geometry": { "type": "Point", "coordinates": [ -98.09637860988488, 30.195837290058932 ] } },
{ "type": "Feature", "properties": { "OBJECTID_1": 25, "OBJECTID": 69, "Permanent_": "de1230ba-0993-4278-8d99-e4dacad54f7b", "Source_Fea": null, "Source_Dat": "1aa9ea2e-7dc0-410b-a853-718bce09e28a", "Source_D_1": "740 TNMC Update 12\/11\/2016", "Source_Ori": "U.S. Geological Survey", "Data_Secur": 0, "Distributi": "E4", "LoadDate": "2016\/12\/11", "FType": 740, "FCode": 74026, "Name": "San Marcos Fire Department Station 3", "IsLandmark": 2, "PointLocat": 1, "AdminType": 0, "AddressBui": null, "Address": "2420 Hunter Road", "City": "San Marcos", "State": "TX", "Zipcode": "78666-5107", "GNIS_ID": null, "Foot_ID": null, "Complex_ID": null, "FType_1": 740, "FCode_1": 74026 }, "geometry": { "type": "Point", "coordinates": [ -97.968322753392329, 29.859216690098208 ] } },
{ "type": "Feature", "properties": { "OBJECTID_1": 26, "OBJECTID": 72, "Permanent_": "28283beb-b3fe-47be-867e-62c0a5910f86", "Source_Fea": "10410434", "Source_Dat": "4f7eb305-b36a-4bae-8116-c78c4d4bb1d4", "Source_D_1": "730 TNMC Update 10\/20\/2016 13:24:06", "Source_Ori": "Oak Ridge National Laboratory, Geographic Information Sciences and Technology Group", "Data_Secur": 5, "Distributi": "E4", "LoadDate": "2016\/10\/20", "FType": 740, "FCode": 74026, "Name": "Wimberley Volunteer Fire Department Rolling Oaks Station", "IsLandmark": 2, "PointLocat": 4, "AdminType": 0, "AddressBui": null, "Address": "103 Limestone Lane", "City": "Driftwood", "State": "TX", "Zipcode": "78619", "GNIS_ID": "2552493", "Foot_ID": null, "Complex_ID": null, "FType_1": 740, "FCode_1": 74026 }, "geometry": { "type": "Point", "coordinates": [ -98.022239684813542, 30.050714492779662 ] } },
{ "type": "Feature", "properties": { "OBJECTID_1": 27, "OBJECTID": 74, "Permanent_": "{342A51FB-F670-4D73-A530-8F09A89B3667}", "Source_Fea": null, "Source_Dat": "{43CAF7AD-177F-413D-90DA-C94E9789FEC8}", "Source_D_1": "NSD TNMC VWE Database Build - Reviewed features", "Source_Ori": "U.S. Geological Survey", "Data_Secur": 5, "Distributi": "E4", "LoadDate": "2013\/12\/04", "FType": 740, "FCode": 74034, "Name": "Hays County Sheriff's Office Kyle Substation", "IsLandmark": 2, "PointLocat": 1, "AdminType": 5, "AddressBui": null, "Address": "101 South Front Street", "City": "Kyle", "State": "TX", "Zipcode": "78640", "GNIS_ID": "2739417", "Foot_ID": null, "Complex_ID": null, "FType_1": 740, "FCode_1": 74034 }, "geometry": { "type": "Point", "coordinates": [ -97.875117652357744, 29.988208818182443 ] } },
{ "type": "Feature", "properties": { "OBJECTID_1": 28, "OBJECTID": 75, "Permanent_": "0779b98d-ccaa-4be5-ad70-c6fb60271d28", "Source_Fea": "10410340", "Source_Dat": "{43CAF7AD-177F-413D-90DA-C94E9789FEC8}", "Source_D_1": "NSD TNMC VWE Database Build - Reviewed features", "Source_Ori": "U.S. Geological Survey", "Data_Secur": 5, "Distributi": "E4", "LoadDate": "2009\/12\/24", "FType": 740, "FCode": 74026, "Name": "Kyle Volunteer Fire Department Station 2", "IsLandmark": 2, "PointLocat": 4, "AdminType": 0, "AddressBui": null, "Address": "150 Bunton Creek Road", "City": "Kyle", "State": "TX", "Zipcode": "78640", "GNIS_ID": "2552488", "Foot_ID": null, "Complex_ID": null, "FType_1": 740, "FCode_1": 74026 }, "geometry": { "type": "Point", "coordinates": [ -97.861443443560063, 30.008448362102286 ] } },
{ "type": "Feature", "properties": { "OBJECTID_1": 29, "OBJECTID": 79, "Permanent_": "e571fe5f-dbae-4548-8084-9028f974ee52", "Source_Fea": "10415525", "Source_Dat": "{43CAF7AD-177F-413D-90DA-C94E9789FEC8}", "Source_D_1": "NSD TNMC VWE Database Build - Reviewed features", "Source_Ori": "U.S. Geological Survey", "Data_Secur": 5, "Distributi": "E4", "LoadDate": "2009\/12\/24", "FType": 740, "FCode": 74026, "Name": "Bulverde Fire Department Station 2", "IsLandmark": 2, "PointLocat": 1, "AdminType": 0, "AddressBui": null, "Address": "Circle Oak Drive", "City": "Bulverde", "State": "TX", "Zipcode": "78163", "GNIS_ID": "2552441", "Foot_ID": null, "Complex_ID": null, "FType_1": 740, "FCode_1": 74026 }, "geometry": { "type": "Point", "coordinates": [ -98.390984662711958, 29.750917191575184 ] } },
{ "type": "Feature", "properties": { "OBJECTID_1": 30, "OBJECTID": 81, "Permanent_": "b3ecb3e7-dd8c-4c09-b147-b9f8802425b9", "Source_Fea": "10152843", "Source_Dat": "{43CAF7AD-177F-413D-90DA-C94E9789FEC8}", "Source_D_1": "NSD TNMC VWE Database Build - Reviewed features", "Source_Ori": "U.S. Geological Survey", "Data_Secur": 5, "Distributi": "E4", "LoadDate": "2009\/12\/24", "FType": 740, "FCode": 74026, "Name": "Canyon Lake Fire \/ Emergency Medical Service Station 3", "IsLandmark": 2, "PointLocat": 1, "AdminType": 0, "AddressBui": null, "Address": "21760 Farm To Market Road 306", "City": "Canyon Lake", "State": "TX", "Zipcode": "78133", "GNIS_ID": "2552653", "Foot_ID": null, "Complex_ID": null, "FType_1": 740, "FCode_1": 74026 }, "geometry": { "type": "Point", "coordinates": [ -98.257050537852024, 29.937548133139899 ] } },
{ "type": "Feature", "properties": { "OBJECTID_1": 31, "OBJECTID": 82, "Permanent_": "{559783EA-0FB4-4DE9-BBD8-56D596DCBF4F}", "Source_Fea": null, "Source_Dat": "{43CAF7AD-177F-413D-90DA-C94E9789FEC8}", "Source_D_1": "NSD TNMC VWE Database Build - Reviewed features", "Source_Ori": "U.S. Geological Survey", "Data_Secur": 5, "Distributi": "E4", "LoadDate": "2013\/12\/16", "FType": 740, "FCode": 74034, "Name": "Blanco County Sheriff's Office", "IsLandmark": 2, "PointLocat": 1, "AdminType": 5, "AddressBui": null, "Address": "400 South US Highway 281", "City": "Johnson City", "State": "TX", "Zipcode": "78636", "GNIS_ID": "2750725", "Foot_ID": null, "Complex_ID": null, "FType_1": 740, "FCode_1": 74034 }, "geometry": { "type": "Point", "coordinates": [ -98.399501254179484, 30.26977525622317 ] } },
{ "type": "Feature", "properties": { "OBJECTID_1": 32, "OBJECTID": 83, "Permanent_": "3959b13e-66b5-4abe-8e51-ec889aeb97ad", "Source_Fea": "10409049", "Source_Dat": "{43CAF7AD-177F-413D-90DA-C94E9789FEC8}", "Source_D_1": "NSD TNMC VWE Database Build - Reviewed features", "Source_Ori": "U.S. Geological Survey", "Data_Secur": 5, "Distributi": "E4", "LoadDate": "2009\/07\/06", "FType": 740, "FCode": 74026, "Name": "Round Mountain Volunteer Fire Department", "IsLandmark": 2, "PointLocat": 4, "AdminType": 0, "AddressBui": null, "Address": "10539 US Highway 281 North", "City": "Round Mountain", "State": "TX", "Zipcode": "78663", "GNIS_ID": "2551125", "Foot_ID": null, "Complex_ID": null, "FType_1": 740, "FCode_1": 74026 }, "geometry": { "type": "Point", "coordinates": [ -98.34430241292597, 30.430811024709101 ] } },
{ "type": "Feature", "properties": { "OBJECTID_1": 33, "OBJECTID": 90, "Permanent_": "{F2C60B6F-E059-41F7-911E-2B017900E22F}", "Source_Fea": null, "Source_Dat": "{43CAF7AD-177F-413D-90DA-C94E9789FEC8}", "Source_D_1": "NSD TNMC VWE Database Build - Reviewed features", "Source_Ori": "U.S. Geological Survey", "Data_Secur": 5, "Distributi": "E4", "LoadDate": "2013\/12\/04", "FType": 740, "FCode": 74034, "Name": "Hays County Sheriff's Office Wimberley - Junction Substation", "IsLandmark": 2, "PointLocat": 4, "AdminType": 5, "AddressBui": null, "Address": "9595 Ranch Road 12", "City": "Wimberley", "State": "TX", "Zipcode": "78676", "GNIS_ID": "2739488", "Foot_ID": null, "Complex_ID": null, "FType_1": 740, "FCode_1": 74034 }, "geometry": { "type": "Point", "coordinates": [ -98.101656701295667, 29.999742647705091 ] } },
{ "type": "Feature", "properties": { "OBJECTID_1": 34, "OBJECTID": 101, "Permanent_": "c2426e8b-f220-49af-863e-f01078265fd4", "Source_Fea": "9999999999", "Source_Dat": "{CC44F99C-6658-4584-B606-926E498D5C82}", "Source_D_1": "TNMC VWE DB Build - Vol Update", "Source_Ori": "U.S. Geological Survey", "Data_Secur": 5, "Distributi": "E4", "LoadDate": "2016\/08\/12", "FType": 740, "FCode": 74026, "Name": "City of Fair Oaks Ranch Fire Station 3", "IsLandmark": 2, "PointLocat": 1, "AdminType": 0, "AddressBui": null, "Address": "30955 Meadow Creek Trail", "City": "Fair Oaks Ranch", "State": "TX", "Zipcode": "78015", "GNIS_ID": "2551875", "Foot_ID": null, "Complex_ID": null, "FType_1": 740, "FCode_1": 74026 }, "geometry": { "type": "Point", "coordinates": [ -98.6232240194729, 29.754742083780172 ] } },
{ "type": "Feature", "properties": { "OBJECTID_1": 35, "OBJECTID": 105, "Permanent_": "{430C2334-0E66-45F1-AF88-2D2B96AC3476}", "Source_Fea": null, "Source_Dat": "{CC44F99C-6658-4584-B606-926E498D5C82}", "Source_D_1": "TNMC VWE DB Build - Vol Update", "Source_Ori": "U.S. Geological Survey", "Data_Secur": 5, "Distributi": "E4", "LoadDate": "2016\/08\/12", "FType": 740, "FCode": 74034, "Name": "New Braunfels Police Department", "IsLandmark": 2, "PointLocat": 1, "AdminType": 6, "AddressBui": null, "Address": "1488 South Seguin Avenue", "City": "New Braunfels", "State": "TX", "Zipcode": "78130", "GNIS_ID": "2739188", "Foot_ID": null, "Complex_ID": null, "FType_1": 740, "FCode_1": 74034 }, "geometry": { "type": "Point", "coordinates": [ -98.109144589750997, 29.687768188750965 ] } },
{ "type": "Feature", "properties": { "OBJECTID_1": 36, "OBJECTID": 106, "Permanent_": "a5cc5edb-558c-4c20-8160-7b3a68036c06", "Source_Fea": "10152706", "Source_Dat": "{43CAF7AD-177F-413D-90DA-C94E9789FEC8}", "Source_D_1": "NSD TNMC VWE Database Build - Reviewed features", "Source_Ori": "U.S. Geological Survey", "Data_Secur": 5, "Distributi": "E4", "LoadDate": "2009\/12\/24", "FType": 740, "FCode": 74026, "Name": "New Braunfels Fire Department Station 3", "IsLandmark": 2, "PointLocat": 1, "AdminType": 0, "AddressBui": null, "Address": "1333 Hanz Drive", "City": "New Braunfels", "State": "TX", "Zipcode": "78130", "GNIS_ID": "2552196", "Foot_ID": null, "Complex_ID": null, "FType_1": 740, "FCode_1": 74026 }, "geometry": { "type": "Point", "coordinates": [ -98.107094968258139, 29.725812890052907 ] } },
{ "type": "Feature", "properties": { "OBJECTID_1": 37, "OBJECTID": 108, "Permanent_": "43091303-1963-48e5-9b68-eda1f0f02c18", "Source_Fea": "10166181", "Source_Dat": "{43CAF7AD-177F-413D-90DA-C94E9789FEC8}", "Source_D_1": "NSD TNMC VWE Database Build - Reviewed features", "Source_Ori": "U.S. Geological Survey", "Data_Secur": 5, "Distributi": "E4", "LoadDate": "2009\/12\/24", "FType": 740, "FCode": 74026, "Name": "Canyon Lake Fire and Emergency Medical Service Headquarters", "IsLandmark": 2, "PointLocat": 1, "AdminType": 0, "AddressBui": null, "Address": "1425 Sattler Road", "City": "Canyon Lake", "State": "TX", "Zipcode": "78132", "GNIS_ID": "2054800", "Foot_ID": null, "Complex_ID": null, "FType_1": 740, "FCode_1": 74026 }, "geometry": { "type": "Point", "coordinates": [ -98.171800160648843, 29.848702527199919 ] } },
{ "type": "Feature", "properties": { "OBJECTID_1": 38, "OBJECTID": 109, "Permanent_": "8b3a7193-eeda-4251-a550-b415f866fc11", "Source_Fea": "10410433", "Source_Dat": "4f7eb305-b36a-4bae-8116-c78c4d4bb1d4", "Source_D_1": "730 TNMC Update 10\/20\/2016 13:24:06", "Source_Ori": "Oak Ridge National Laboratory, Geographic Information Sciences and Technology Group", "Data_Secur": 5, "Distributi": "E4", "LoadDate": "2016\/10\/20", "FType": 740, "FCode": 74026, "Name": "Wimberley Volunteer Fire Department Jacobs Well Station", "IsLandmark": 2, "PointLocat": 4, "AdminType": 0, "AddressBui": null, "Address": "Pleasant Valley Road and Jacobs Well Road", "City": "Wimberley", "State": "TX", "Zipcode": "78676", "GNIS_ID": "2552497", "Foot_ID": null, "Complex_ID": null, "FType_1": 740, "FCode_1": 74026 }, "geometry": { "type": "Point", "coordinates": [ -98.125854491591497, 30.029197693019171 ] } },
{ "type": "Feature", "properties": { "OBJECTID_1": 39, "OBJECTID": 112, "Permanent_": "a12b6e48-1c0f-4038-9375-6a95274a5648", "Source_Fea": "10410422", "Source_Dat": "1aa9ea2e-7dc0-410b-a853-718bce09e28a", "Source_D_1": "740 TNMC Update 12\/11\/2016", "Source_Ori": "U.S. Geological Survey", "Data_Secur": 5, "Distributi": "E4", "LoadDate": "2016\/12\/11", "FType": 740, "FCode": 74026, "Name": "South Hays Fire Department Station 13", "IsLandmark": 2, "PointLocat": 4, "AdminType": 0, "AddressBui": null, "Address": "3300 Hilliard Road", "City": "San Marcos", "State": "TX", "Zipcode": "78666", "GNIS_ID": "2552491", "Foot_ID": null, "Complex_ID": null, "FType_1": 740, "FCode_1": 74026 }, "geometry": { "type": "Point", "coordinates": [ -97.970138550253864, 29.957035065016271 ] } },
{ "type": "Feature", "properties": { "OBJECTID_1": 40, "OBJECTID": 113, "Permanent_": "6400fa8f-e0af-4a96-8044-fbbf31e189fe", "Source_Fea": "10410420", "Source_Dat": "{CC44F99C-6658-4584-B606-926E498D5C82}", "Source_D_1": "TNMC VWE DB Build - Vol Update", "Source_Ori": "U.S. Geological Survey", "Data_Secur": 5, "Distributi": "E4", "LoadDate": "2016\/08\/12", "FType": 740, "FCode": 74026, "Name": "South Hays Fire Department Company 1", "IsLandmark": 2, "PointLocat": 4, "AdminType": 0, "AddressBui": null, "Address": "1401 West San Antonio Street", "City": "San Marcos", "State": "TX", "Zipcode": "78666", "GNIS_ID": "2031199", "Foot_ID": null, "Complex_ID": null, "FType_1": 740, "FCode_1": 74026 }, "geometry": { "type": "Point", "coordinates": [ -97.954817560482013, 29.872101930859458 ] } },
{ "type": "Feature", "properties": { "OBJECTID_1": 41, "OBJECTID": 117, "Permanent_": "b067ab41-c63a-4056-b88f-a24a32f96299", "Source_Fea": "10410439", "Source_Dat": "{43CAF7AD-177F-413D-90DA-C94E9789FEC8}", "Source_D_1": "NSD TNMC VWE Database Build - Reviewed features", "Source_Ori": "U.S. Geological Survey", "Data_Secur": 5, "Distributi": "E4", "LoadDate": "2009\/12\/24", "FType": 740, "FCode": 74026, "Name": "Kyle Volunteer Fire Department Station 3", "IsLandmark": 2, "PointLocat": 4, "AdminType": 0, "AddressBui": null, "Address": "100 High Road", "City": "Kyle", "State": "TX", "Zipcode": "78640", "GNIS_ID": "2552495", "Foot_ID": null, "Complex_ID": null, "FType_1": 740, "FCode_1": 74026 }, "geometry": { "type": "Point", "coordinates": [ -97.819890732471265, 29.998579760447626 ] } },
{ "type": "Feature", "properties": { "OBJECTID_1": 42, "OBJECTID": 121, "Permanent_": "361c1e6b-6661-4253-ae3e-46976c74c9cb", "Source_Fea": "10147987", "Source_Dat": "{43CAF7AD-177F-413D-90DA-C94E9789FEC8}", "Source_D_1": "NSD TNMC VWE Database Build - Reviewed features", "Source_Ori": "U.S. Geological Survey", "Data_Secur": 5, "Distributi": "E4", "LoadDate": "2009\/07\/06", "FType": 740, "FCode": 74026, "Name": "Sisterdale Volunteer Fire Department", "IsLandmark": 2, "PointLocat": 1, "AdminType": 0, "AddressBui": null, "Address": "1207 Ranch To Market Road 1376", "City": "Boerne", "State": "TX", "Zipcode": "78006", "GNIS_ID": "2039978", "Foot_ID": null, "Complex_ID": null, "FType_1": 740, "FCode_1": 74026 }, "geometry": { "type": "Point", "coordinates": [ -98.721208626876603, 29.976178403710435 ] } },
{ "type": "Feature", "properties": { "OBJECTID_1": 43, "OBJECTID": 122, "Permanent_": "2f4de856-f82c-4af3-bf3f-314a1981f7e4", "Source_Fea": "10407801", "Source_Dat": "{CC44F99C-6658-4584-B606-926E498D5C82}", "Source_D_1": "TNMC VWE DB Build - Vol Update", "Source_Ori": "U.S. Geological Survey", "Data_Secur": 5, "Distributi": "E4", "LoadDate": "2016\/08\/12", "FType": 740, "FCode": 74026, "Name": "Bulverde Fire Department Station 1 Headquarters", "IsLandmark": 2, "PointLocat": 1, "AdminType": 0, "AddressBui": null, "Address": "30240 Cougar Bend", "City": "Bulverde", "State": "TX", "Zipcode": "78163", "GNIS_ID": "2552274", "Foot_ID": null, "Complex_ID": null, "FType_1": 740, "FCode_1": 74026 }, "geometry": { "type": "Point", "coordinates": [ -98.45183416381559, 29.74453700527863 ] } },
{ "type": "Feature", "properties": { "OBJECTID_1": 44, "OBJECTID": 124, "Permanent_": "e0a754ab-1c7a-4c93-9473-ba91f5c8a5da", "Source_Fea": "10407807", "Source_Dat": "{43CAF7AD-177F-413D-90DA-C94E9789FEC8}", "Source_D_1": "NSD TNMC VWE Database Build - Reviewed features", "Source_Ori": "U.S. Geological Survey", "Data_Secur": 5, "Distributi": "E4", "LoadDate": "2009\/12\/24", "FType": 740, "FCode": 74026, "Name": "Spring Branch Volunteer Fire Department Central Station", "IsLandmark": 2, "PointLocat": 1, "AdminType": 0, "AddressBui": null, "Address": "9850 Farm To Market Road 311", "City": "Spring Branch", "State": "TX", "Zipcode": "78070", "GNIS_ID": "2552191", "Foot_ID": null, "Complex_ID": null, "FType_1": 740, "FCode_1": 74026 }, "geometry": { "type": "Point", "coordinates": [ -98.407594361190775, 29.87588297481949 ] } },
{ "type": "Feature", "properties": { "OBJECTID_1": 45, "OBJECTID": 127, "Permanent_": "d27a66d2-f94f-48d2-b840-5a52c854e530", "Source_Fea": "10152685", "Source_Dat": "{43CAF7AD-177F-413D-90DA-C94E9789FEC8}", "Source_D_1": "NSD TNMC VWE Database Build - Reviewed features", "Source_Ori": "U.S. Geological Survey", "Data_Secur": 5, "Distributi": "E4", "LoadDate": "2009\/12\/24", "FType": 740, "FCode": 74026, "Name": "Canyon Lake Fire \/ Emergency Medical Service Station 5", "IsLandmark": 2, "PointLocat": 1, "AdminType": 0, "AddressBui": null, "Address": "1754 Island View Drive", "City": "Canyon Lake", "State": "TX", "Zipcode": "78133", "GNIS_ID": "2552651", "Foot_ID": null, "Complex_ID": null, "FType_1": 740, "FCode_1": 74026 }, "geometry": { "type": "Point", "coordinates": [ -98.23418842785361, 29.846523216273454 ] } },
{ "type": "Feature", "properties": { "OBJECTID_1": 46, "OBJECTID": 130, "Permanent_": "ec383df7-9084-4c4c-bc8b-35c12ccd15a3", "Source_Fea": "10412920", "Source_Dat": "{43CAF7AD-177F-413D-90DA-C94E9789FEC8}", "Source_D_1": "NSD TNMC VWE Database Build - Reviewed features", "Source_Ori": "U.S. Geological Survey", "Data_Secur": 5, "Distributi": "E4", "LoadDate": "2009\/12\/24", "FType": 740, "FCode": 74026, "Name": "Henly Volunteer Fire Department", "IsLandmark": 2, "PointLocat": 4, "AdminType": 0, "AddressBui": null, "Address": "7520 Creek Road", "City": "Dripping Springs", "State": "TX", "Zipcode": "78620", "GNIS_ID": "2552240", "Foot_ID": null, "Complex_ID": null, "FType_1": 740, "FCode_1": 74026 }, "geometry": { "type": "Point", "coordinates": [ -98.21245134185591, 30.188505663305762 ] } },
{ "type": "Feature", "properties": { "OBJECTID_1": 47, "OBJECTID": 131, "Permanent_": "fba5ad72-4cd8-451e-b1a5-03f9963e8554", "Source_Fea": "10410423", "Source_Dat": "1aa9ea2e-7dc0-410b-a853-718bce09e28a", "Source_D_1": "740 TNMC Update 12\/11\/2016", "Source_Ori": "U.S. Geological Survey", "Data_Secur": 5, "Distributi": "E4", "LoadDate": "2016\/12\/11", "FType": 740, "FCode": 74026, "Name": "South Hays Fire Department Station 12", "IsLandmark": 2, "PointLocat": 4, "AdminType": 0, "AddressBui": null, "Address": "8301 Ranch Road 12", "City": "San Marcos", "State": "TX", "Zipcode": "78666-1979", "GNIS_ID": "2552492", "Foot_ID": null, "Complex_ID": null, "FType_1": 740, "FCode_1": 74026 }, "geometry": { "type": "Point", "coordinates": [ -98.079475403267224, 29.934770584195178 ] } },
{ "type": "Feature", "properties": { "OBJECTID_1": 48, "OBJECTID": 133, "Permanent_": "9bb6ba1b-9be5-4cda-a6f3-cdfd379bb8ae", "Source_Fea": null, "Source_Dat": "1aa9ea2e-7dc0-410b-a853-718bce09e28a", "Source_D_1": "740 TNMC Update 12\/11\/2016", "Source_Ori": "U.S. Geological Survey", "Data_Secur": 0, "Distributi": "E4", "LoadDate": "2016\/12\/11", "FType": 740, "FCode": 74026, "Name": "San Marcos Fire Department Station 2", "IsLandmark": 2, "PointLocat": 1, "AdminType": 0, "AddressBui": null, "Address": "1314 Academy Street", "City": "San Marcos", "State": "TX", "Zipcode": "78666-3312", "GNIS_ID": null, "Foot_ID": null, "Complex_ID": null, "FType_1": 740, "FCode_1": 74026 }, "geometry": { "type": "Point", "coordinates": [ -97.953201293504833, 29.891918182777943 ] } },
{ "type": "Feature", "properties": { "OBJECTID_1": 49, "OBJECTID": 137, "Permanent_": "870045e7-8014-47d0-8377-1461739881de", "Source_Fea": "10410305", "Source_Dat": "{43CAF7AD-177F-413D-90DA-C94E9789FEC8}", "Source_D_1": "NSD TNMC VWE Database Build - Reviewed features", "Source_Ori": "U.S. Geological Survey", "Data_Secur": 5, "Distributi": "E4", "LoadDate": "2009\/12\/24", "FType": 740, "FCode": 74026, "Name": "Buda Volunteer Fire Department Station 2", "IsLandmark": 2, "PointLocat": 1, "AdminType": 0, "AddressBui": null, "Address": "Old West Trail", "City": "Buda", "State": "TX", "Zipcode": "78610", "GNIS_ID": "2552494", "Foot_ID": null, "Complex_ID": null, "FType_1": 740, "FCode_1": 74026 }, "geometry": { "type": "Point", "coordinates": [ -97.816206534703781, 30.064500674366684 ] } },
{ "type": "Feature", "properties": { "OBJECTID_1": 50, "OBJECTID": 139, "Permanent_": "2bdbd1ac-e94b-46c4-a3cc-be7a0beeee3c", "Source_Fea": "TX000892", "Source_Dat": "{CC44F99C-6658-4584-B606-926E498D5C82}", "Source_D_1": "TNMC VWE DB Build - Vol Update", "Source_Ori": "U.S. Geological Survey", "Data_Secur": 5, "Distributi": "E4", "LoadDate": "2016\/08\/12", "FType": 740, "FCode": 74034, "Name": "Boerne Police Department", "IsLandmark": 0, "PointLocat": 1, "AdminType": 6, "AddressBui": "City of Boerne Police and Municipal Court Complex", "Address": "124 Old San Antonio Road", "City": "Boerne", "State": "TX", "Zipcode": "78006", "GNIS_ID": "2041937", "Foot_ID": null, "Complex_ID": null, "FType_1": 740, "FCode_1": 74034 }, "geometry": { "type": "Point", "coordinates": [ -98.712582847820158, 29.765860696314121 ] } },
{ "type": "Feature", "properties": { "OBJECTID_1": 51, "OBJECTID": 145, "Permanent_": "ad5aa834-a8b3-42bc-b30c-31a6a3582985", "Source_Fea": "10154944", "Source_Dat": "{43CAF7AD-177F-413D-90DA-C94E9789FEC8}", "Source_D_1": "NSD TNMC VWE Database Build - Reviewed features", "Source_Ori": "U.S. Geological Survey", "Data_Secur": 5, "Distributi": "E4", "LoadDate": "2009\/12\/24", "FType": 740, "FCode": 74026, "Name": "Bracken Volunteer Fire Department Station 1 Central", "IsLandmark": 2, "PointLocat": 4, "AdminType": 0, "AddressBui": null, "Address": "23600 Farm To Market Road 3009", "City": "San Antonio", "State": "TX", "Zipcode": "78266", "GNIS_ID": "2552293", "Foot_ID": null, "Complex_ID": null, "FType_1": 740, "FCode_1": 74026 }, "geometry": { "type": "Point", "coordinates": [ -98.307288944429217, 29.660007897846242 ] } },
{ "type": "Feature", "properties": { "OBJECTID_1": 52, "OBJECTID": 146, "Permanent_": "66aa06de-5a30-4c37-9b1c-32e8f5ee08de", "Source_Fea": "10152677", "Source_Dat": "{43CAF7AD-177F-413D-90DA-C94E9789FEC8}", "Source_D_1": "NSD TNMC VWE Database Build - Reviewed features", "Source_Ori": "U.S. Geological Survey", "Data_Secur": 5, "Distributi": "E4", "LoadDate": "2009\/12\/24", "FType": 740, "FCode": 74026, "Name": "Canyon Lake Fire \/ Emergency Medical Service Station 2", "IsLandmark": 2, "PointLocat": 4, "AdminType": 0, "AddressBui": null, "Address": "160 Oblate Drive", "City": "Canyon Lake", "State": "TX", "Zipcode": "78133", "GNIS_ID": "2552656", "Foot_ID": null, "Complex_ID": null, "FType_1": 740, "FCode_1": 74026 }, "geometry": { "type": "Point", "coordinates": [ -98.288959742198301, 29.867138218154309 ] } },
{ "type": "Feature", "properties": { "OBJECTID_1": 53, "OBJECTID": 147, "Permanent_": "{335A8BE1-65E1-4446-A944-D76C82905BCC}", "Source_Fea": null, "Source_Dat": "{43CAF7AD-177F-413D-90DA-C94E9789FEC8}", "Source_D_1": "NSD TNMC VWE Database Build - Reviewed features", "Source_Ori": "U.S. Geological Survey", "Data_Secur": 5, "Distributi": "E4", "LoadDate": "2013\/12\/16", "FType": 740, "FCode": 74034, "Name": "Johnson City Police Department", "IsLandmark": 2, "PointLocat": 1, "AdminType": 6, "AddressBui": null, "Address": "406 West Main Street", "City": "Johnson City", "State": "TX", "Zipcode": "78636", "GNIS_ID": "2750724", "Foot_ID": null, "Complex_ID": null, "FType_1": 740, "FCode_1": 74034 }, "geometry": { "type": "Point", "coordinates": [ -98.417254075515132, 30.276981279162783 ] } },
{ "type": "Feature", "properties": { "OBJECTID_1": 54, "OBJECTID": 148, "Permanent_": "21978fc4-ad0c-4b7f-816b-16974b5a536d", "Source_Fea": "TX000152", "Source_Dat": "{43CAF7AD-177F-413D-90DA-C94E9789FEC8}", "Source_D_1": "NSD TNMC VWE Database Build - Reviewed features", "Source_Ori": "U.S. Geological Survey", "Data_Secur": 5, "Distributi": "E4", "LoadDate": "2013\/12\/16", "FType": 740, "FCode": 74034, "Name": "Blanco County Sheriff's Office", "IsLandmark": 0, "PointLocat": 1, "AdminType": 5, "AddressBui": null, "Address": "105 North Avenue G", "City": "Johnson City", "State": "TX", "Zipcode": "78636", "GNIS_ID": "2750355", "Foot_ID": null, "Complex_ID": null, "FType_1": 740, "FCode_1": 74034 }, "geometry": { "type": "Point", "coordinates": [ -98.411054198792215, 30.277477490893546 ] } },
{ "type": "Feature", "properties": { "OBJECTID_1": 55, "OBJECTID": 155, "Permanent_": "{80645708-1C9E-49E9-BC71-AD10021C33B4}", "Source_Fea": null, "Source_Dat": "1aa9ea2e-7dc0-410b-a853-718bce09e28a", "Source_D_1": "740 TNMC Update 12\/11\/2016", "Source_Ori": "U.S. Geological Survey", "Data_Secur": 5, "Distributi": "E4", "LoadDate": "2016\/12\/11", "FType": 740, "FCode": 74034, "Name": "San Marcos Police Department", "IsLandmark": 2, "PointLocat": 1, "AdminType": 6, "AddressBui": null, "Address": "2300 South Interstate Highway 35", "City": "San Marcos", "State": "TX", "Zipcode": "78666-5962", "GNIS_ID": "2739266", "Foot_ID": null, "Complex_ID": null, "FType_1": 740, "FCode_1": 74034 }, "geometry": { "type": "Point", "coordinates": [ -97.957275391446103, 29.854667663781697 ] } },
{ "type": "Feature", "properties": { "OBJECTID_1": 56, "OBJECTID": 157, "Permanent_": "{316FA186-D92E-4DA6-B8D7-FFCBC0C976EE}", "Source_Fea": null, "Source_Dat": "{CC44F99C-6658-4584-B606-926E498D5C82}", "Source_D_1": "TNMC VWE DB Build - Vol Update", "Source_Ori": "U.S. Geological Survey", "Data_Secur": 5, "Distributi": "E4", "LoadDate": "2016\/08\/12", "FType": 740, "FCode": 74034, "Name": "Texas State University Police Department", "IsLandmark": 2, "PointLocat": 1, "AdminType": 6, "AddressBui": "Nueces Building", "Address": "615 North L B J Drive", "City": "San Marcos", "State": "TX", "Zipcode": "78666", "GNIS_ID": "2739345", "Foot_ID": null, "Complex_ID": null, "FType_1": 740, "FCode_1": 74034 }, "geometry": { "type": "Point", "coordinates": [ -97.941239657384244, 29.888168134851583 ] } },
{ "type": "Feature", "properties": { "OBJECTID_1": 57, "OBJECTID": 158, "Permanent_": "1924bf10-72c3-409a-a04d-2a0b26f2336c", "Source_Fea": null, "Source_Dat": "1aa9ea2e-7dc0-410b-a853-718bce09e28a", "Source_D_1": "740 TNMC Update 12\/11\/2016", "Source_Ori": "U.S. Geological Survey", "Data_Secur": 0, "Distributi": "E4", "LoadDate": "2016\/12\/11", "FType": 740, "FCode": 74026, "Name": "San Marcos Fire Department Station 5", "IsLandmark": 2, "PointLocat": 1, "AdminType": 0, "AddressBui": null, "Address": "100 Carlson Circle", "City": "San Marcos", "State": "TX", "Zipcode": "78666-7064", "GNIS_ID": null, "Foot_ID": null, "Complex_ID": null, "FType_1": 740, "FCode_1": 74026 }, "geometry": { "type": "Point", "coordinates": [ -97.904548645303692, 29.905776977425603 ] } },
{ "type": "Feature", "properties": { "OBJECTID_1": 58, "OBJECTID": 161, "Permanent_": "{A8782E17-32AD-4E1D-9DD4-BAC27C8FE5AC}", "Source_Fea": null, "Source_Dat": "{CC44F99C-6658-4584-B606-926E498D5C82}", "Source_D_1": "TNMC VWE DB Build - Vol Update", "Source_Ori": "U.S. Geological Survey", "Data_Secur": 5, "Distributi": "E4", "LoadDate": "2015\/05\/14", "FType": 740, "FCode": 74036, "Name": "Texas Department of Criminal Justice Kyle Correctional Center", "IsLandmark": 2, "PointLocat": 1, "AdminType": 0, "AddressBui": null, "Address": "23001 Interstate 35", "City": "Kyle", "State": "TX", "Zipcode": "78640", "GNIS_ID": "2767818", "Foot_ID": null, "Complex_ID": null, "FType_1": 740, "FCode_1": 74036 }, "geometry": { "type": "Point", "coordinates": [ -97.871778118865052, 29.978433782892807 ] } },
{ "type": "Feature", "properties": { "OBJECTID_1": 59, "OBJECTID": 163, "Permanent_": "a8a6d6bc-d2be-41c7-9fcd-1448af2aa377", "Source_Fea": "10139424", "Source_Dat": "{43CAF7AD-177F-413D-90DA-C94E9789FEC8}", "Source_D_1": "NSD TNMC VWE Database Build - Reviewed features", "Source_Ori": "U.S. Geological Survey", "Data_Secur": 5, "Distributi": "E4", "LoadDate": "2009\/12\/24", "FType": 740, "FCode": 74026, "Name": "Manchaca Volunteer Fire Department Station 6", "IsLandmark": 2, "PointLocat": 4, "AdminType": 0, "AddressBui": null, "Address": "2900 Chaparral Road", "City": "Manchaca", "State": "TX", "Zipcode": "78652", "GNIS_ID": "2552659", "Foot_ID": null, "Complex_ID": null, "FType_1": 740, "FCode_1": 74026 }, "geometry": { "type": "Point", "coordinates": [ -97.893720657682195, 30.136194885085956 ] } },
{ "type": "Feature", "properties": { "OBJECTID_1": 60, "OBJECTID": 164, "Permanent_": "6c1e33eb-10f0-4197-8039-22e400b41b16", "Source_Fea": "10139105", "Source_Dat": "{43CAF7AD-177F-413D-90DA-C94E9789FEC8}", "Source_D_1": "NSD TNMC VWE Database Build - Reviewed features", "Source_Ori": "U.S. Geological Survey", "Data_Secur": 5, "Distributi": "E4", "LoadDate": "2009\/12\/24", "FType": 740, "FCode": 74026, "Name": "Chisholm Trail Fire and Rescue Station 1", "IsLandmark": 2, "PointLocat": 4, "AdminType": 0, "AddressBui": null, "Address": "8811 Niederwald Strasse", "City": "Kyle", "State": "TX", "Zipcode": "78640", "GNIS_ID": "2552360", "Foot_ID": null, "Complex_ID": null, "FType_1": 740, "FCode_1": 74026 }, "geometry": { "type": "Point", "coordinates": [ -97.729975410836516, 30.010966466529283 ] } },
{ "type": "Feature", "properties": { "OBJECTID_1": 61, "OBJECTID": 165, "Permanent_": "87b8ecad-fb3a-4305-a7cf-913dcb026e39", "Source_Fea": "10169026", "Source_Dat": "{43CAF7AD-177F-413D-90DA-C94E9789FEC8}", "Source_D_1": "NSD TNMC VWE Database Build - Reviewed features", "Source_Ori": "U.S. Geological Survey", "Data_Secur": 5, "Distributi": "E4", "LoadDate": "2009\/07\/06", "FType": 740, "FCode": 74026, "Name": "Comfort Volunteer Fire Department", "IsLandmark": 2, "PointLocat": 1, "AdminType": 0, "AddressBui": null, "Address": "224 West Farm To Market Road 473", "City": "Comfort", "State": "TX", "Zipcode": "78013", "GNIS_ID": "2551316", "Foot_ID": null, "Complex_ID": null, "FType_1": 740, "FCode_1": 74026 }, "geometry": { "type": "Point", "coordinates": [ -98.909166799608101, 29.97028591706146 ] } },
{ "type": "Feature", "properties": { "OBJECTID_1": 62, "OBJECTID": 169, "Permanent_": "941afa6c-0524-4c81-b807-7f77d12e67ce", "Source_Fea": "TX001091", "Source_Dat": "{CC44F99C-6658-4584-B606-926E498D5C82}", "Source_D_1": "TNMC VWE DB Build - Vol Update", "Source_Ori": "U.S. Geological Survey", "Data_Secur": 5, "Distributi": "E4", "LoadDate": "2016\/08\/12", "FType": 740, "FCode": 74034, "Name": "Kendall County Sheriff's Office", "IsLandmark": 0, "PointLocat": 1, "AdminType": 5, "AddressBui": "County Law Enforcement Center", "Address": "6 Staudt Street", "City": "Boerne", "State": "TX", "Zipcode": "78006", "GNIS_ID": "2750485", "Foot_ID": null, "Complex_ID": null, "FType_1": 740, "FCode_1": 74034 }, "geometry": { "type": "Point", "coordinates": [ -98.7229075766233, 29.806263260840865 ] } },
{ "type": "Feature", "properties": { "OBJECTID_1": 63, "OBJECTID": 174, "Permanent_": "fd2d57c1-4935-4915-b1cb-bffc6ae3d71d", "Source_Fea": "10407844", "Source_Dat": "{43CAF7AD-177F-413D-90DA-C94E9789FEC8}", "Source_D_1": "NSD TNMC VWE Database Build - Reviewed features", "Source_Ori": "U.S. Geological Survey", "Data_Secur": 5, "Distributi": "E4", "LoadDate": "2009\/07\/06", "FType": 740, "FCode": 74026, "Name": "Johnson City Volunteer Fire Department", "IsLandmark": 2, "PointLocat": 1, "AdminType": 0, "AddressBui": null, "Address": "300 Live Oak Drive", "City": "Johnson City", "State": "TX", "Zipcode": "78636", "GNIS_ID": "2552068", "Foot_ID": null, "Complex_ID": null, "FType_1": 740, "FCode_1": 74026 }, "geometry": { "type": "Point", "coordinates": [ -98.408079124551932, 30.274271993257912 ] } },
{ "type": "Feature", "properties": { "OBJECTID_1": 64, "OBJECTID": 177, "Permanent_": "da552aa0-b1d8-4a1c-961a-0477a5132fe0", "Source_Fea": "9999999999", "Source_Dat": "{CC44F99C-6658-4584-B606-926E498D5C82}", "Source_D_1": "TNMC VWE DB Build - Vol Update", "Source_Ori": "U.S. Geological Survey", "Data_Secur": 5, "Distributi": "E4", "LoadDate": "2016\/08\/12", "FType": 740, "FCode": 74026, "Name": "New Braunfels Fire Department Station 1", "IsLandmark": 2, "PointLocat": 1, "AdminType": 0, "AddressBui": null, "Address": "169 South Hill Avenue", "City": "New Braunfels", "State": "TX", "Zipcode": "78130", "GNIS_ID": "2552331", "Foot_ID": null, "Complex_ID": null, "FType_1": 740, "FCode_1": 74026 }, "geometry": { "type": "Point", "coordinates": [ -98.125427293834491, 29.700732990734991 ] } },
{ "type": "Feature", "properties": { "OBJECTID_1": 65, "OBJECTID": 182, "Permanent_": "{9E88E696-BE7E-490B-9A52-1627A37553F7}", "Source_Fea": null, "Source_Dat": "{43CAF7AD-177F-413D-90DA-C94E9789FEC8}", "Source_D_1": "NSD TNMC VWE Database Build - Reviewed features", "Source_Ori": "U.S. Geological Survey", "Data_Secur": 5, "Distributi": "E4", "LoadDate": "2013\/12\/04", "FType": 740, "FCode": 74034, "Name": "Hays County Sheriff's Office Wimberley - Lions Field Substation", "IsLandmark": 2, "PointLocat": 4, "AdminType": 5, "AddressBui": null, "Address": "650 Farm to Market Road 2325", "City": "Wimberley", "State": "TX", "Zipcode": "78676", "GNIS_ID": "2739414", "Foot_ID": null, "Complex_ID": null, "FType_1": 740, "FCode_1": 74034 }, "geometry": { "type": "Point", "coordinates": [ -98.107379967911129, 30.003630791028229 ] } },
{ "type": "Feature", "properties": { "OBJECTID_1": 66, "OBJECTID": 183, "Permanent_": "{30AD9F70-219B-49A8-A7D8-3FC86A6B327F}", "Source_Fea": null, "Source_Dat": "{CC44F99C-6658-4584-B606-926E498D5C82}", "Source_D_1": "TNMC VWE DB Build - Vol Update", "Source_Ori": "U.S. Geological Survey", "Data_Secur": 5, "Distributi": "E4", "LoadDate": "2016\/08\/12", "FType": 740, "FCode": 74034, "Name": "Hays County Sheriff's Office Dripping Springs Substation", "IsLandmark": 2, "PointLocat": 1, "AdminType": 5, "AddressBui": null, "Address": "195 Roger Hanks Parkway", "City": "Dripping Springs", "State": "TX", "Zipcode": "78620", "GNIS_ID": "2739238", "Foot_ID": null, "Complex_ID": null, "FType_1": 740, "FCode_1": 74034 }, "geometry": { "type": "Point", "coordinates": [ -98.106041233516066, 30.195556552293112 ] } },
{ "type": "Feature", "properties": { "OBJECTID_1": 67, "OBJECTID": 187, "Permanent_": "3bf40681-7724-480e-9b63-57642d38a136", "Source_Fea": null, "Source_Dat": "1aa9ea2e-7dc0-410b-a853-718bce09e28a", "Source_D_1": "740 TNMC Update 12\/11\/2016", "Source_Ori": "U.S. Geological Survey", "Data_Secur": 0, "Distributi": "E4", "LoadDate": "2016\/12\/11", "FType": 740, "FCode": 74026, "Name": "San Marcos Fire Department Station 4", "IsLandmark": 2, "PointLocat": 1, "AdminType": 0, "AddressBui": null, "Address": "404 Broadway Street", "City": "San Marcos", "State": "TX", "Zipcode": "78666", "GNIS_ID": null, "Foot_ID": null, "Complex_ID": null, "FType_1": 740, "FCode_1": 74026 }, "geometry": { "type": "Point", "coordinates": [ -97.942619324422253, 29.860801696641033 ] } },
{ "type": "Feature", "properties": { "OBJECTID_1": 68, "OBJECTID": 188, "Permanent_": "{01368160-F081-49A3-BCBF-91D174397E97}", "Source_Fea": "480007111054", "Source_Dat": "{CC44F99C-6658-4584-B606-926E498D5C82}", "Source_D_1": "TNMC VWE DB Build - Vol Update", "Source_Ori": "U.S. Geological Survey", "Data_Secur": 5, "Distributi": "E4", "LoadDate": "2016\/08\/12", "FType": 740, "FCode": 74036, "Name": "SAN MARCOS TREATMENT CENTER", "IsLandmark": 2, "PointLocat": 1, "AdminType": 0, "AddressBui": null, "Address": "120 BERT BROWN RD", "City": "SAN MARCOS", "State": "TX", "Zipcode": "78666", "GNIS_ID": null, "Foot_ID": null, "Complex_ID": null, "FType_1": 740, "FCode_1": 74036 }, "geometry": { "type": "Point", "coordinates": [ -97.92717975454201, 29.898666636955795 ] } },
{ "type": "Feature", "properties": { "OBJECTID_1": 69, "OBJECTID": 189, "Permanent_": "{B4D4B633-74B7-46C2-8F0B-70C567AD173C}", "Source_Fea": null, "Source_Dat": "{43CAF7AD-177F-413D-90DA-C94E9789FEC8}", "Source_D_1": "NSD TNMC VWE Database Build - Reviewed features", "Source_Ori": "U.S. Geological Survey", "Data_Secur": 5, "Distributi": "E4", "LoadDate": "2013\/12\/04", "FType": 740, "FCode": 74034, "Name": "Hays County Sheriff's Office Driftwood Substation", "IsLandmark": 2, "PointLocat": 4, "AdminType": 5, "AddressBui": null, "Address": "Farm to Market Road 150 at Farm to Market Road 3237", "City": "Driftwood", "State": "TX", "Zipcode": "78619", "GNIS_ID": "2739204", "Foot_ID": null, "Complex_ID": null, "FType_1": 740, "FCode_1": 74034 }, "geometry": { "type": "Point", "coordinates": [ -97.988973627430937, 30.048050934702928 ] } },
{ "type": "Feature", "properties": { "OBJECTID_1": 70, "OBJECTID": 190, "Permanent_": "5f512a34-3bcc-48c0-8f18-0408741a0169", "Source_Fea": "10139091", "Source_Dat": "{CC44F99C-6658-4584-B606-926E498D5C82}", "Source_D_1": "TNMC VWE DB Build - Vol Update", "Source_Ori": "U.S. Geological Survey", "Data_Secur": 5, "Distributi": "E4", "LoadDate": "2016\/08\/12", "FType": 740, "FCode": 74026, "Name": "North Hays County Volunteer Fire Department North Station", "IsLandmark": 2, "PointLocat": 4, "AdminType": 0, "AddressBui": null, "Address": "16716 Fitzhugh Road", "City": "Dripping Springs", "State": "TX", "Zipcode": "78620", "GNIS_ID": "2552640", "Foot_ID": null, "Complex_ID": null, "FType_1": 740, "FCode_1": 74026 }, "geometry": { "type": "Point", "coordinates": [ -98.054414702676354, 30.248807201191426 ] } },
{ "type": "Feature", "properties": { "OBJECTID_1": 71, "OBJECTID": 192, "Permanent_": "2bb9b70d-fc35-4e14-bde3-9a15c06f67fc", "Source_Fea": "10410308", "Source_Dat": "{CC44F99C-6658-4584-B606-926E498D5C82}", "Source_D_1": "TNMC VWE DB Build - Vol Update", "Source_Ori": "U.S. Geological Survey", "Data_Secur": 5, "Distributi": "E4", "LoadDate": "2015\/12\/09", "FType": 740, "FCode": 74026, "Name": "Driftwood Volunteer Fire Department", "IsLandmark": 2, "PointLocat": 1, "AdminType": 0, "AddressBui": null, "Address": "15840 Farm To Market Road 1826", "City": "Austin", "State": "TX", "Zipcode": "78619", "GNIS_ID": "2552184", "Foot_ID": null, "Complex_ID": null, "FType_1": 740, "FCode_1": 74026 }, "geometry": { "type": "Point", "coordinates": [ -97.975693674223635, 30.151479290436953 ] } },
{ "type": "Feature", "properties": { "OBJECTID_1": 72, "OBJECTID": 193, "Permanent_": "d05f7dab-ddcb-4742-8df8-ab25bf089fe2", "Source_Fea": "10410411", "Source_Dat": "{43CAF7AD-177F-413D-90DA-C94E9789FEC8}", "Source_D_1": "NSD TNMC VWE Database Build - Reviewed features", "Source_Ori": "U.S. Geological Survey", "Data_Secur": 5, "Distributi": "E4", "LoadDate": "2009\/12\/24", "FType": 740, "FCode": 74026, "Name": "Kyle Volunteer Fire Department Station 1", "IsLandmark": 2, "PointLocat": 4, "AdminType": 0, "AddressBui": null, "Address": "210 West Moore Street", "City": "Kyle", "State": "TX", "Zipcode": "78640", "GNIS_ID": "2552487", "Foot_ID": null, "Complex_ID": null, "FType_1": 740, "FCode_1": 74026 }, "geometry": { "type": "Point", "coordinates": [ -97.876997746248946, 29.987235656400458 ] } },
{ "type": "Feature", "properties": { "OBJECTID_1": 73, "OBJECTID": 194, "Permanent_": "{14F06889-A68B-4269-A09C-162490E3A3B9}", "Source_Fea": null, "Source_Dat": "{43CAF7AD-177F-413D-90DA-C94E9789FEC8}", "Source_D_1": "NSD TNMC VWE Database Build - Reviewed features", "Source_Ori": "U.S. Geological Survey", "Data_Secur": 5, "Distributi": "E4", "LoadDate": "2013\/12\/04", "FType": 740, "FCode": 74034, "Name": "Kyle Police Department", "IsLandmark": 2, "PointLocat": 1, "AdminType": 6, "AddressBui": null, "Address": "111 North Front Street", "City": "Kyle", "State": "TX", "Zipcode": "78640", "GNIS_ID": "2739418", "Foot_ID": null, "Complex_ID": null, "FType_1": 740, "FCode_1": 74034 }, "geometry": { "type": "Point", "coordinates": [ -97.875483213279608, 29.989142817187314 ] } },
{ "type": "Feature", "properties": { "OBJECTID_1": 74, "OBJECTID": 196, "Permanent_": "{0E2841B3-CE1D-41AF-9B02-61B44FDE22B4}", "Source_Fea": null, "Source_Dat": "{43CAF7AD-177F-413D-90DA-C94E9789FEC8}", "Source_D_1": "NSD TNMC VWE Database Build - Reviewed features", "Source_Ori": "U.S. Geological Survey", "Data_Secur": 5, "Distributi": "E4", "LoadDate": "2013\/12\/04", "FType": 740, "FCode": 74034, "Name": "Hays County Sheriff's Office Buda Substation", "IsLandmark": 2, "PointLocat": 1, "AdminType": 5, "AddressBui": null, "Address": "500 Jack C Hays Trail", "City": "Buda", "State": "TX", "Zipcode": "78610", "GNIS_ID": "2739416", "Foot_ID": null, "Complex_ID": null, "FType_1": 740, "FCode_1": 74034 }, "geometry": { "type": "Point", "coordinates": [ -97.849502958594655, 30.077871794547718 ] } }
]
}
