{
"type": "FeatureCollection",
"features": [
{ "type": "Feature", "properties": { "OBJECTID": 3787, "FID_Struct": 567, "PERMANENT_": "205a2389-ab25-4d45-b578-cc8f9e242532", "SOURCE_FEA": "10157031", "SOURCE_DAT": "{43CAF7AD-177F-413D-90DA-C94E9789FEC8}", "SOURCE_D_1": "NSD TNMC VWE Database Build - Reviewed features", "SOURCE_ORI": "U.S. Geological Survey", "DATA_SECUR": 5, "DISTRIBUTI": "E4", "LOADDATE": "2009\/12\/24", "FTYPE": 740, "FCODE": 74026, "NAME": "Bracken Volunteer Fire Department Station 2", "ISLANDMARK": 2, "POINTLOCAT": 1, "ADMINTYPE": 0, "ADDRESSBUI": null, "ADDRESS": "6789 Farm To Market Road 482", "CITY": "New Braunfels", "STATE": "TX", "ZIPCODE": "78132", "GNIS_ID": "2552556", "FOOT_ID": null, "COMPLEX_ID": null, "FID_txdot_": 47, "CNTY_NM": "Comal", "CNTY_NBR": 46, "FIPS": 48091, "Shape_Leng": 1.94903665755 }, "geometry": { "type": "Point", "coordinates": [ -98.228235299919106, 29.64288190127877 ] } },
{ "type": "Feature", "properties": { "OBJECTID": 3797, "FID_Struct": 2656, "PERMANENT_": "{15D3487E-1F6A-4050-9D72-4CE706C58D0E}", "SOURCE_FEA": "481473000969", "SOURCE_DAT": "{CC19ABE0-361F-4846-B852-AA57C04368C8}", "SOURCE_D_1": "NSD TNMC VWE Database Build - Reviewed Schools", "SOURCE_ORI": "Oak Ridge National Laboratory, Geographic Information Sciences and Technology Group", "DATA_SECUR": 5, "DISTRIBUTI": "E4", "LOADDATE": "2011\/12\/20", "FTYPE": 730, "FCODE": 73002, "NAME": "COMAL ELEMENTARY SCHOOL", "ISLANDMARK": 2, "POINTLOCAT": 1, "ADMINTYPE": 0, "ADDRESSBUI": null, "ADDRESS": "6720 FM 482", "CITY": "New Braunfels", "STATE": "TX", "ZIPCODE": "78132", "GNIS_ID": null, "FOOT_ID": null, "COMPLEX_ID": null, "FID_txdot_": 47, "CNTY_NM": "Comal", "CNTY_NBR": 46, "FIPS": 48091, "Shape_Leng": 1.94903665755 }, "geometry": { "type": "Point", "coordinates": [ -98.226907021941486, 29.64472300865998 ] } },
{ "type": "Feature", "properties": { "OBJECTID": 3818, "FID_Struct": 4610, "PERMANENT_": "{98D962A0-E17A-4838-BBC9-DABE71E84A57}", "SOURCE_FEA": null, "SOURCE_DAT": "{43CAF7AD-177F-413D-90DA-C94E9789FEC8}", "SOURCE_D_1": "NSD TNMC VWE Database Build - Reviewed features", "SOURCE_ORI": "U.S. Geological Survey", "DATA_SECUR": 5, "DISTRIBUTI": "E4", "LOADDATE": "2013\/12\/04", "FTYPE": 740, "FCODE": 74034, "NAME": "Garden Ridge Police Department", "ISLANDMARK": 2, "POINTLOCAT": 1, "ADMINTYPE": 6, "ADDRESSBUI": null, "ADDRESS": "9357 Schoenthal Road", "CITY": "San Antonio", "STATE": "TX", "ZIPCODE": "78266", "GNIS_ID": "2739312", "FOOT_ID": null, "COMPLEX_ID": null, "FID_txdot_": 47, "CNTY_NM": "Comal", "CNTY_NBR": 46, "FIPS": 48091, "Shape_Leng": 1.94903665755 }, "geometry": { "type": "Point", "coordinates": [ -98.301569430684651, 29.64969361197069 ] } },
{ "type": "Feature", "properties": { "OBJECTID": 3873, "FID_Struct": 568, "PERMANENT_": "{102A81EC-AEE7-4C15-AD2A-B1DF725E1055}", "SOURCE_FEA": "481473011910", "SOURCE_DAT": "{CC19ABE0-361F-4846-B852-AA57C04368C8}", "SOURCE_D_1": "NSD TNMC VWE Database Build - Reviewed Schools", "SOURCE_ORI": "Oak Ridge National Laboratory, Geographic Information Sciences and Technology Group", "DATA_SECUR": 5, "DISTRIBUTI": "E4", "LOADDATE": "2011\/12\/20", "FTYPE": 730, "FCODE": 73002, "NAME": "MORNINGSIDE EL", "ISLANDMARK": 2, "POINTLOCAT": 1, "ADMINTYPE": 0, "ADDRESSBUI": null, "ADDRESS": "1404 IH 35 N", "CITY": "New Braunfels", "STATE": "TX", "ZIPCODE": "78130", "GNIS_ID": null, "FOOT_ID": null, "COMPLEX_ID": null, "FID_txdot_": 47, "CNTY_NM": "Comal", "CNTY_NBR": 46, "FIPS": 48091, "Shape_Leng": 1.94903665755 }, "geometry": { "type": "Point", "coordinates": [ -98.161289046452282, 29.658466171176883 ] } },
{ "type": "Feature", "properties": { "OBJECTID": 3885, "FID_Struct": 12648, "PERMANENT_": "ad5aa834-a8b3-42bc-b30c-31a6a3582985", "SOURCE_FEA": "10154944", "SOURCE_DAT": "{43CAF7AD-177F-413D-90DA-C94E9789FEC8}", "SOURCE_D_1": "NSD TNMC VWE Database Build - Reviewed features", "SOURCE_ORI": "U.S. Geological Survey", "DATA_SECUR": 5, "DISTRIBUTI": "E4", "LOADDATE": "2009\/12\/24", "FTYPE": 740, "FCODE": 74026, "NAME": "Bracken Volunteer Fire Department Station 1 Central", "ISLANDMARK": 2, "POINTLOCAT": 4, "ADMINTYPE": 0, "ADDRESSBUI": null, "ADDRESS": "23600 Farm To Market Road 3009", "CITY": "San Antonio", "STATE": "TX", "ZIPCODE": "78266", "GNIS_ID": "2552293", "FOOT_ID": null, "COMPLEX_ID": null, "FID_txdot_": 47, "CNTY_NM": "Comal", "CNTY_NBR": 46, "FIPS": 48091, "Shape_Leng": 1.94903665755 }, "geometry": { "type": "Point", "coordinates": [ -98.30728120666231, 29.660002822072613 ] } },
{ "type": "Feature", "properties": { "OBJECTID": 3963, "FID_Struct": 2658, "PERMANENT_": "13ad1e50-986c-453d-9ec7-8405588eaa1a", "SOURCE_FEA": "10152707", "SOURCE_DAT": "{43CAF7AD-177F-413D-90DA-C94E9789FEC8}", "SOURCE_D_1": "NSD TNMC VWE Database Build - Reviewed features", "SOURCE_ORI": "U.S. Geological Survey", "DATA_SECUR": 5, "DISTRIBUTI": "E4", "LOADDATE": "2009\/12\/24", "FTYPE": 740, "FCODE": 74026, "NAME": "New Braunfels Fire Department Station 5", "ISLANDMARK": 2, "POINTLOCAT": 1, "ADMINTYPE": 0, "ADDRESSBUI": null, "ADDRESS": "1250 West County Line Road", "CITY": "New Braunfels", "STATE": "TX", "ZIPCODE": "78130", "GNIS_ID": "2552652", "FOOT_ID": null, "COMPLEX_ID": null, "FID_txdot_": 47, "CNTY_NM": "Comal", "CNTY_NBR": 46, "FIPS": 48091, "Shape_Leng": 1.94903665755 }, "geometry": { "type": "Point", "coordinates": [ -98.121617500347327, 29.670090700925186 ] } },
{ "type": "Feature", "properties": { "OBJECTID": 3966, "FID_Struct": 2659, "PERMANENT_": "{CD4C6CBE-6D6D-4610-8651-B74609F4AC8F}", "SOURCE_FEA": "483237006147", "SOURCE_DAT": "{CC19ABE0-361F-4846-B852-AA57C04368C8}", "SOURCE_D_1": "NSD TNMC VWE Database Build - Reviewed Schools", "SOURCE_ORI": "Oak Ridge National Laboratory, Geographic Information Sciences and Technology Group", "DATA_SECUR": 5, "DISTRIBUTI": "E4", "LOADDATE": "2011\/12\/20", "FTYPE": 730, "FCODE": 73002, "NAME": "MEMORIAL PRI", "ISLANDMARK": 2, "POINTLOCAT": 1, "ADMINTYPE": 0, "ADDRESSBUI": null, "ADDRESS": "1200 COUNTY LINE RD", "CITY": "New Braunfels", "STATE": "TX", "ZIPCODE": "78130", "GNIS_ID": null, "FOOT_ID": null, "COMPLEX_ID": null, "FID_txdot_": 47, "CNTY_NM": "Comal", "CNTY_NBR": 46, "FIPS": 48091, "Shape_Leng": 1.94903665755 }, "geometry": { "type": "Point", "coordinates": [ -98.121360213303149, 29.670716493271584 ] } },
{ "type": "Feature", "properties": { "OBJECTID": 3980, "FID_Struct": 14678, "PERMANENT_": "{8EE3DEF0-1BA6-41EF-81B1-47E937C3F803}", "SOURCE_FEA": "483237006762", "SOURCE_DAT": "{CC19ABE0-361F-4846-B852-AA57C04368C8}", "SOURCE_D_1": "NSD TNMC VWE Database Build - Reviewed Schools", "SOURCE_ORI": "Oak Ridge National Laboratory, Geographic Information Sciences and Technology Group", "DATA_SECUR": 5, "DISTRIBUTI": "E4", "LOADDATE": "2011\/12\/20", "FTYPE": 730, "FCODE": 73002, "NAME": "MEMORIAL EL", "ISLANDMARK": 2, "POINTLOCAT": 1, "ADMINTYPE": 0, "ADDRESSBUI": null, "ADDRESS": "1900 S WALNUT", "CITY": "New Braunfels", "STATE": "TX", "ZIPCODE": "78130", "GNIS_ID": null, "FOOT_ID": null, "COMPLEX_ID": null, "FID_txdot_": 47, "CNTY_NM": "Comal", "CNTY_NBR": 46, "FIPS": 48091, "Shape_Leng": 1.94903665755 }, "geometry": { "type": "Point", "coordinates": [ -98.119413395112076, 29.672459392886708 ] } },
{ "type": "Feature", "properties": { "OBJECTID": 3981, "FID_Struct": 4661, "PERMANENT_": "{3C969928-5C8C-40AB-AFC1-97E820F2C393}", "SOURCE_FEA": "483237007841", "SOURCE_DAT": "{CC19ABE0-361F-4846-B852-AA57C04368C8}", "SOURCE_D_1": "NSD TNMC VWE Database Build - Reviewed Schools", "SOURCE_ORI": "Oak Ridge National Laboratory, Geographic Information Sciences and Technology Group", "DATA_SECUR": 5, "DISTRIBUTI": "E4", "LOADDATE": "2011\/12\/20", "FTYPE": 730, "FCODE": 73004, "NAME": "MEMORIAL INT", "ISLANDMARK": 2, "POINTLOCAT": 1, "ADMINTYPE": 0, "ADDRESSBUI": null, "ADDRESS": "1911 S WALNUT", "CITY": "New Braunfels", "STATE": "TX", "ZIPCODE": "78130", "GNIS_ID": null, "FOOT_ID": null, "COMPLEX_ID": null, "FID_txdot_": 47, "CNTY_NM": "Comal", "CNTY_NBR": 46, "FIPS": 48091, "Shape_Leng": 1.94903665755 }, "geometry": { "type": "Point", "coordinates": [ -98.11939237435854, 29.672660334706734 ] } },
{ "type": "Feature", "properties": { "OBJECTID": 4015, "FID_Struct": 4659, "PERMANENT_": "2872eca9-7769-4fd1-91a8-e0216fdb19ee", "SOURCE_FEA": "10152845", "SOURCE_DAT": "{43CAF7AD-177F-413D-90DA-C94E9789FEC8}", "SOURCE_D_1": "NSD TNMC VWE Database Build - Reviewed features", "SOURCE_ORI": "U.S. Geological Survey", "DATA_SECUR": 5, "DISTRIBUTI": "E4", "LOADDATE": "2009\/12\/24", "FTYPE": 740, "FCODE": 74026, "NAME": "New Braunfels Fire Department Station 2", "ISLANDMARK": 2, "POINTLOCAT": 1, "ADMINTYPE": 0, "ADDRESSBUI": null, "ADDRESS": "4120 State Highway 337 Loop", "CITY": "New Braunfels", "STATE": "TX", "ZIPCODE": "78130", "GNIS_ID": "2552183", "FOOT_ID": null, "COMPLEX_ID": null, "FID_txdot_": 47, "CNTY_NM": "Comal", "CNTY_NBR": 46, "FIPS": 48091, "Shape_Leng": 1.94903665755 }, "geometry": { "type": "Point", "coordinates": [ -98.155542689743299, 29.67685656777644 ] } },
{ "type": "Feature", "properties": { "OBJECTID": 4044, "FID_Struct": 569, "PERMANENT_": "{E33619A2-A03D-4625-8AF3-A062267E2799}", "SOURCE_FEA": null, "SOURCE_DAT": "{CC44F99C-6658-4584-B606-926E498D5C82}", "SOURCE_D_1": "TNMC VWE DB Build - Vol Update", "SOURCE_ORI": "U.S. Geological Survey", "DATA_SECUR": 5, "DISTRIBUTI": "E4", "LOADDATE": "2016\/08\/12", "FTYPE": 740, "FCODE": 74034, "NAME": "Comal County Sheriff's Office", "ISLANDMARK": 2, "POINTLOCAT": 1, "ADMINTYPE": 5, "ADDRESSBUI": null, "ADDRESS": "3005 West San Antonio Street", "CITY": "New Braunfels", "STATE": "TX", "ZIPCODE": "78130-6999", "GNIS_ID": "2739286", "FOOT_ID": null, "COMPLEX_ID": null, "FID_txdot_": 47, "CNTY_NM": "Comal", "CNTY_NBR": 46, "FIPS": 48091, "Shape_Leng": 1.94903665755 }, "geometry": { "type": "Point", "coordinates": [ -98.15138659971177, 29.680390600345959 ] } },
{ "type": "Feature", "properties": { "OBJECTID": 4085, "FID_Struct": 570, "PERMANENT_": "{9BDACC9C-501E-42BD-ACDA-7B9F9DD1AEBE}", "SOURCE_FEA": "483237003590", "SOURCE_DAT": "{092B06A5-744D-461B-BB91-876E463350D0}", "SOURCE_D_1": "TNMC VWE DB Build - Vol Update Schools", "SOURCE_ORI": "Oak Ridge National Laboratory, Geographic Information Sciences and Technology Group", "DATA_SECUR": 5, "DISTRIBUTI": "E4", "LOADDATE": "2016\/08\/12", "FTYPE": 730, "FCODE": 73003, "NAME": "Lone Star Elementary School", "ISLANDMARK": 2, "POINTLOCAT": 1, "ADMINTYPE": 0, "ADDRESSBUI": null, "ADDRESS": "2343 West San Antonio Street", "CITY": "New Braunfels", "STATE": "TX", "ZIPCODE": "78130-6799", "GNIS_ID": null, "FOOT_ID": null, "COMPLEX_ID": null, "FID_txdot_": 47, "CNTY_NM": "Comal", "CNTY_NBR": 46, "FIPS": 48091, "Shape_Leng": 1.94903665755 }, "geometry": { "type": "Point", "coordinates": [ -98.143645099741548, 29.685114300184864 ] } },
{ "type": "Feature", "properties": { "OBJECTID": 4108, "FID_Struct": 8707, "PERMANENT_": "{430C2334-0E66-45F1-AF88-2D2B96AC3476}", "SOURCE_FEA": null, "SOURCE_DAT": "{CC44F99C-6658-4584-B606-926E498D5C82}", "SOURCE_D_1": "TNMC VWE DB Build - Vol Update", "SOURCE_ORI": "U.S. Geological Survey", "DATA_SECUR": 5, "DISTRIBUTI": "E4", "LOADDATE": "2016\/08\/12", "FTYPE": 740, "FCODE": 74034, "NAME": "New Braunfels Police Department", "ISLANDMARK": 2, "POINTLOCAT": 1, "ADMINTYPE": 6, "ADDRESSBUI": null, "ADDRESS": "1488 South Seguin Avenue", "CITY": "New Braunfels", "STATE": "TX", "ZIPCODE": "78130", "GNIS_ID": "2739188", "FOOT_ID": null, "COMPLEX_ID": null, "FID_txdot_": 47, "CNTY_NM": "Comal", "CNTY_NBR": 46, "FIPS": 48091, "Shape_Leng": 1.94903665755 }, "geometry": { "type": "Point", "coordinates": [ -98.109136899648149, 29.687763100386803 ] } },
{ "type": "Feature", "properties": { "OBJECTID": 4161, "FID_Struct": 573, "PERMANENT_": "{81949380-8AE1-450E-918E-892D7F9936BA}", "SOURCE_FEA": "483237003589", "SOURCE_DAT": "{092B06A5-744D-461B-BB91-876E463350D0}", "SOURCE_D_1": "TNMC VWE DB Build - Vol Update Schools", "SOURCE_ORI": "Oak Ridge National Laboratory, Geographic Information Sciences and Technology Group", "DATA_SECUR": 5, "DISTRIBUTI": "E4", "LOADDATE": "2016\/08\/12", "FTYPE": 730, "FCODE": 73003, "NAME": "Carl Schurz Elementary School", "ISLANDMARK": 2, "POINTLOCAT": 1, "ADMINTYPE": 0, "ADDRESSBUI": null, "ADDRESS": "633 West Coll Street", "CITY": "New Braunfels", "STATE": "TX", "ZIPCODE": "78130", "GNIS_ID": null, "FOOT_ID": null, "COMPLEX_ID": null, "FID_txdot_": 47, "CNTY_NM": "Comal", "CNTY_NBR": 46, "FIPS": 48091, "Shape_Leng": 1.94903665755 }, "geometry": { "type": "Point", "coordinates": [ -98.124647599606988, 29.695527600518403 ] } },
{ "type": "Feature", "properties": { "OBJECTID": 4166, "FID_Struct": 14675, "PERMANENT_": "{792AABBD-9D3D-4F0C-AE38-6A86FF0CD291}", "SOURCE_FEA": "483237007840", "SOURCE_DAT": "{CC19ABE0-361F-4846-B852-AA57C04368C8}", "SOURCE_D_1": "NSD TNMC VWE Database Build - Reviewed Schools", "SOURCE_ORI": "Oak Ridge National Laboratory, Geographic Information Sciences and Technology Group", "DATA_SECUR": 5, "DISTRIBUTI": "E4", "LOADDATE": "2011\/12\/20", "FTYPE": 730, "FCODE": 73005, "NAME": "THE NBISD LEARNING CENTER", "ISLANDMARK": 2, "POINTLOCAT": 1, "ADMINTYPE": 0, "ADDRESSBUI": null, "ADDRESS": "902 W SAN ANTONIO", "CITY": "New Braunfels", "STATE": "TX", "ZIPCODE": "78130", "GNIS_ID": null, "FOOT_ID": null, "COMPLEX_ID": null, "FID_txdot_": 47, "CNTY_NM": "Comal", "CNTY_NBR": 46, "FIPS": 48091, "Shape_Leng": 1.94903665755 }, "geometry": { "type": "Point", "coordinates": [ -98.131708999870398, 29.695940319190413 ] } },
{ "type": "Feature", "properties": { "OBJECTID": 4167, "FID_Struct": 6655, "PERMANENT_": "{769CAD00-7562-4A07-8670-FA3B03804FF3}", "SOURCE_FEA": "483237009177", "SOURCE_DAT": "{CC19ABE0-361F-4846-B852-AA57C04368C8}", "SOURCE_D_1": "NSD TNMC VWE Database Build - Reviewed Schools", "SOURCE_ORI": "Oak Ridge National Laboratory, Geographic Information Sciences and Technology Group", "DATA_SECUR": 5, "DISTRIBUTI": "E4", "LOADDATE": "2011\/12\/20", "FTYPE": 730, "FCODE": 73002, "NAME": "DISCIPLINE ALTERNATIVE EDUCATION PLACEMENT", "ISLANDMARK": 2, "POINTLOCAT": 1, "ADMINTYPE": 0, "ADDRESSBUI": null, "ADDRESS": "902 W SAN ANTONIO", "CITY": "New Braunfels", "STATE": "TX", "ZIPCODE": "78130", "GNIS_ID": null, "FOOT_ID": null, "COMPLEX_ID": null, "FID_txdot_": 47, "CNTY_NM": "Comal", "CNTY_NBR": 46, "FIPS": 48091, "Shape_Leng": 1.94903665755 }, "geometry": { "type": "Point", "coordinates": [ -98.131845967517336, 29.695950000392259 ] } },
{ "type": "Feature", "properties": { "OBJECTID": 4201, "FID_Struct": 14677, "PERMANENT_": "da552aa0-b1d8-4a1c-961a-0477a5132fe0", "SOURCE_FEA": "9999999999", "SOURCE_DAT": "{CC44F99C-6658-4584-B606-926E498D5C82}", "SOURCE_D_1": "TNMC VWE DB Build - Vol Update", "SOURCE_ORI": "U.S. Geological Survey", "DATA_SECUR": 5, "DISTRIBUTI": "E4", "LOADDATE": "2016\/08\/12", "FTYPE": 740, "FCODE": 74026, "NAME": "New Braunfels Fire Department Station 1", "ISLANDMARK": 2, "POINTLOCAT": 1, "ADMINTYPE": 0, "ADDRESSBUI": null, "ADDRESS": "169 South Hill Avenue", "CITY": "New Braunfels", "STATE": "TX", "ZIPCODE": "78130", "GNIS_ID": "2552331", "FOOT_ID": null, "COMPLEX_ID": null, "FID_txdot_": 47, "CNTY_NM": "Comal", "CNTY_NBR": 46, "FIPS": 48091, "Shape_Leng": 1.94903665755 }, "geometry": { "type": "Point", "coordinates": [ -98.125419600134421, 29.70072789967287 ] } },
{ "type": "Feature", "properties": { "OBJECTID": 4215, "FID_Struct": 14676, "PERMANENT_": "{CF83E5DA-7662-410B-8D17-1AC43938EE31}", "SOURCE_FEA": "368540", "SOURCE_DAT": "{092B06A5-744D-461B-BB91-876E463350D0}", "SOURCE_D_1": "TNMC VWE DB Build - Vol Update Schools", "SOURCE_ORI": "Oak Ridge National Laboratory, Geographic Information Sciences and Technology Group", "DATA_SECUR": 5, "DISTRIBUTI": "E4", "LOADDATE": "2016\/08\/12", "FTYPE": 730, "FCODE": 73006, "NAME": "Seguin Beauty School", "ISLANDMARK": 2, "POINTLOCAT": 1, "ADMINTYPE": 0, "ADDRESSBUI": null, "ADDRESS": "214 West San Antonio Street", "CITY": "New Braunfels", "STATE": "TX", "ZIPCODE": "78130", "GNIS_ID": null, "FOOT_ID": null, "COMPLEX_ID": null, "FID_txdot_": 47, "CNTY_NM": "Comal", "CNTY_NBR": 46, "FIPS": 48091, "Shape_Leng": 1.94903665755 }, "geometry": { "type": "Point", "coordinates": [ -98.125950299966348, 29.701874900406381 ] } },
{ "type": "Feature", "properties": { "OBJECTID": 4236, "FID_Struct": 572, "PERMANENT_": "{146A2647-249E-4693-BED0-05CE35130061}", "SOURCE_FEA": "01322231", "SOURCE_DAT": "{CC19ABE0-361F-4846-B852-AA57C04368C8}", "SOURCE_D_1": "NSD TNMC VWE Database Build - Reviewed Schools", "SOURCE_ORI": "Oak Ridge National Laboratory, Geographic Information Sciences and Technology Group", "DATA_SECUR": 5, "DISTRIBUTI": "E4", "LOADDATE": "2011\/12\/20", "FTYPE": 730, "FCODE": 73003, "NAME": "STS PETER AND PAUL CATHOLIC SCHOOL", "ISLANDMARK": 2, "POINTLOCAT": 1, "ADMINTYPE": 0, "ADDRESSBUI": null, "ADDRESS": null, "CITY": null, "STATE": "TX", "ZIPCODE": "-", "GNIS_ID": null, "FOOT_ID": null, "COMPLEX_ID": null, "FID_txdot_": 47, "CNTY_NM": "Comal", "CNTY_NBR": 46, "FIPS": 48091, "Shape_Leng": 1.94903665755 }, "geometry": { "type": "Point", "coordinates": [ -98.127436965643426, 29.703574936534153 ] } },
{ "type": "Feature", "properties": { "OBJECTID": 4248, "FID_Struct": 12686, "PERMANENT_": "{696498E7-4447-4EE2-B2D1-97DBE2212B71}", "SOURCE_FEA": "481473011552", "SOURCE_DAT": "{CC19ABE0-361F-4846-B852-AA57C04368C8}", "SOURCE_D_1": "NSD TNMC VWE Database Build - Reviewed Schools", "SOURCE_ORI": "Oak Ridge National Laboratory, Geographic Information Sciences and Technology Group", "DATA_SECUR": 5, "DISTRIBUTI": "E4", "LOADDATE": "2011\/12\/20", "FTYPE": 730, "FCODE": 73004, "NAME": "CHURCH HILL MIDDLE SCHOOL", "ISLANDMARK": 2, "POINTLOCAT": 1, "ADMINTYPE": 0, "ADDRESSBUI": null, "ADDRESS": "1275 N BUSINESS 35", "CITY": "New Braunfels", "STATE": "TX", "ZIPCODE": "78130", "GNIS_ID": null, "FOOT_ID": null, "COMPLEX_ID": null, "FID_txdot_": 47, "CNTY_NM": "Comal", "CNTY_NBR": 46, "FIPS": 48091, "Shape_Leng": 1.94903665755 }, "geometry": { "type": "Point", "coordinates": [ -98.095945780573288, 29.70427198036765 ] } },
{ "type": "Feature", "properties": { "OBJECTID": 4260, "FID_Struct": 2661, "PERMANENT_": "{B7A1DAB1-A6F9-4E74-AFCE-5DE62A1C5A3F}", "SOURCE_FEA": "481473011943", "SOURCE_DAT": "{CC19ABE0-361F-4846-B852-AA57C04368C8}", "SOURCE_D_1": "NSD TNMC VWE Database Build - Reviewed Schools", "SOURCE_ORI": "Oak Ridge National Laboratory, Geographic Information Sciences and Technology Group", "DATA_SECUR": 5, "DISTRIBUTI": "E4", "LOADDATE": "2011\/12\/20", "FTYPE": 730, "FCODE": 73002, "NAME": "BORGFELD AREA MIDDLE", "ISLANDMARK": 2, "POINTLOCAT": 1, "ADMINTYPE": 0, "ADDRESSBUI": null, "ADDRESS": "1404 IH 35 N", "CITY": "New Braunfels", "STATE": "TX", "ZIPCODE": "78130", "GNIS_ID": null, "FOOT_ID": null, "COMPLEX_ID": null, "FID_txdot_": 47, "CNTY_NM": "Comal", "CNTY_NBR": 46, "FIPS": 48091, "Shape_Leng": 1.94903665755 }, "geometry": { "type": "Point", "coordinates": [ -98.091390000348213, 29.704780000196877 ] } },
{ "type": "Feature", "properties": { "OBJECTID": 4261, "FID_Struct": 2662, "PERMANENT_": "{956A2F85-38CD-40EA-8E1C-0CADE20D5313}", "SOURCE_FEA": "481473011919", "SOURCE_DAT": "{CC19ABE0-361F-4846-B852-AA57C04368C8}", "SOURCE_D_1": "NSD TNMC VWE Database Build - Reviewed Schools", "SOURCE_ORI": "Oak Ridge National Laboratory, Geographic Information Sciences and Technology Group", "DATA_SECUR": 5, "DISTRIBUTI": "E4", "LOADDATE": "2011\/12\/20", "FTYPE": 730, "FCODE": 73002, "NAME": "AVERY PARK AREA EL", "ISLANDMARK": 2, "POINTLOCAT": 1, "ADMINTYPE": 0, "ADDRESSBUI": null, "ADDRESS": "1404 IH 35 N", "CITY": "New Braunfels", "STATE": "TX", "ZIPCODE": "78130", "GNIS_ID": null, "FOOT_ID": null, "COMPLEX_ID": null, "FID_txdot_": 47, "CNTY_NM": "Comal", "CNTY_NBR": 46, "FIPS": 48091, "Shape_Leng": 1.94903665755 }, "geometry": { "type": "Point", "coordinates": [ -98.091390000348213, 29.704780000196877 ] } },
{ "type": "Feature", "properties": { "OBJECTID": 4262, "FID_Struct": 4663, "PERMANENT_": "{E4B44934-007F-405C-9FD1-F3FDE0F64856}", "SOURCE_FEA": "481473011913", "SOURCE_DAT": "{CC19ABE0-361F-4846-B852-AA57C04368C8}", "SOURCE_D_1": "NSD TNMC VWE Database Build - Reviewed Schools", "SOURCE_ORI": "Oak Ridge National Laboratory, Geographic Information Sciences and Technology Group", "DATA_SECUR": 5, "DISTRIBUTI": "E4", "LOADDATE": "2011\/12\/20", "FTYPE": 730, "FCODE": 73002, "NAME": "GARDEN RIDGE AREA EL", "ISLANDMARK": 2, "POINTLOCAT": 1, "ADMINTYPE": 0, "ADDRESSBUI": null, "ADDRESS": "1404 IH 35 N", "CITY": "New Braunfels", "STATE": "TX", "ZIPCODE": "78130", "GNIS_ID": null, "FOOT_ID": null, "COMPLEX_ID": null, "FID_txdot_": 47, "CNTY_NM": "Comal", "CNTY_NBR": 46, "FIPS": 48091, "Shape_Leng": 1.94903665755 }, "geometry": { "type": "Point", "coordinates": [ -98.091390000348213, 29.704780000196877 ] } },
{ "type": "Feature", "properties": { "OBJECTID": 4263, "FID_Struct": 8709, "PERMANENT_": "{F8AD6256-21D9-4215-9893-A41BE464536E}", "SOURCE_FEA": "481473011820", "SOURCE_DAT": "{CC19ABE0-361F-4846-B852-AA57C04368C8}", "SOURCE_D_1": "NSD TNMC VWE Database Build - Reviewed Schools", "SOURCE_ORI": "Oak Ridge National Laboratory, Geographic Information Sciences and Technology Group", "DATA_SECUR": 5, "DISTRIBUTI": "E4", "LOADDATE": "2011\/12\/20", "FTYPE": 730, "FCODE": 73002, "NAME": "KINDER TRACT AREA EL", "ISLANDMARK": 2, "POINTLOCAT": 1, "ADMINTYPE": 0, "ADDRESSBUI": null, "ADDRESS": "1404 IH 35 N", "CITY": "New Braunfels", "STATE": "TX", "ZIPCODE": "78130", "GNIS_ID": null, "FOOT_ID": null, "COMPLEX_ID": null, "FID_txdot_": 47, "CNTY_NM": "Comal", "CNTY_NBR": 46, "FIPS": 48091, "Shape_Leng": 1.94903665755 }, "geometry": { "type": "Point", "coordinates": [ -98.091390000348213, 29.704780000196877 ] } },
{ "type": "Feature", "properties": { "OBJECTID": 4264, "FID_Struct": 14680, "PERMANENT_": "{A44FA687-4399-46DD-8020-C375BD90A950}", "SOURCE_FEA": "481473011815", "SOURCE_DAT": "{CC19ABE0-361F-4846-B852-AA57C04368C8}", "SOURCE_D_1": "NSD TNMC VWE Database Build - Reviewed Schools", "SOURCE_ORI": "Oak Ridge National Laboratory, Geographic Information Sciences and Technology Group", "DATA_SECUR": 5, "DISTRIBUTI": "E4", "LOADDATE": "2011\/12\/20", "FTYPE": 730, "FCODE": 73002, "NAME": "JOHNSON RANCH AREA EL", "ISLANDMARK": 2, "POINTLOCAT": 1, "ADMINTYPE": 0, "ADDRESSBUI": null, "ADDRESS": "1404 IH 35 N", "CITY": "New Braunfels", "STATE": "TX", "ZIPCODE": "78130", "GNIS_ID": null, "FOOT_ID": null, "COMPLEX_ID": null, "FID_txdot_": 47, "CNTY_NM": "Comal", "CNTY_NBR": 46, "FIPS": 48091, "Shape_Leng": 1.94903665755 }, "geometry": { "type": "Point", "coordinates": [ -98.091390000348213, 29.704780000196877 ] } },
{ "type": "Feature", "properties": { "OBJECTID": 4293, "FID_Struct": 10726, "PERMANENT_": "{994F6EB0-8556-44A2-96B4-4838D2253173}", "SOURCE_FEA": "481473006957", "SOURCE_DAT": "{CC19ABE0-361F-4846-B852-AA57C04368C8}", "SOURCE_D_1": "NSD TNMC VWE Database Build - Reviewed Schools", "SOURCE_ORI": "Oak Ridge National Laboratory, Geographic Information Sciences and Technology Group", "DATA_SECUR": 5, "DISTRIBUTI": "E4", "LOADDATE": "2011\/12\/20", "FTYPE": 730, "FCODE": 73005, "NAME": "MEMORIAL HIGH SCHOOL", "ISLANDMARK": 2, "POINTLOCAT": 1, "ADMINTYPE": 0, "ADDRESSBUI": null, "ADDRESS": "1419 N BUSINESS 35", "CITY": "New Braunfels", "STATE": "TX", "ZIPCODE": "78130", "GNIS_ID": null, "FOOT_ID": null, "COMPLEX_ID": null, "FID_txdot_": 47, "CNTY_NM": "Comal", "CNTY_NBR": 46, "FIPS": 48091, "Shape_Leng": 1.94903665755 }, "geometry": { "type": "Point", "coordinates": [ -98.098689627424335, 29.706893768532666 ] } },
{ "type": "Feature", "properties": { "OBJECTID": 4315, "FID_Struct": 611, "PERMANENT_": "{6B79241B-FBCF-42A1-A093-E8A962350C5E}", "SOURCE_FEA": "481473011442", "SOURCE_DAT": "{CC19ABE0-361F-4846-B852-AA57C04368C8}", "SOURCE_D_1": "NSD TNMC VWE Database Build - Reviewed Schools", "SOURCE_ORI": "Oak Ridge National Laboratory, Geographic Information Sciences and Technology Group", "DATA_SECUR": 5, "DISTRIBUTI": "E4", "LOADDATE": "2011\/12\/20", "FTYPE": 730, "FCODE": 73003, "NAME": "FREIHEIT ELEMENTARY", "ISLANDMARK": 2, "POINTLOCAT": 1, "ADMINTYPE": 0, "ADDRESSBUI": null, "ADDRESS": "2002 FM 1101", "CITY": "New Braunfels", "STATE": "TX", "ZIPCODE": "78130", "GNIS_ID": null, "FOOT_ID": null, "COMPLEX_ID": null, "FID_txdot_": 47, "CNTY_NM": "Comal", "CNTY_NBR": 46, "FIPS": 48091, "Shape_Leng": 1.94903665755 }, "geometry": { "type": "Point", "coordinates": [ -98.077975062499092, 29.708410619954179 ] } },
{ "type": "Feature", "properties": { "OBJECTID": 4320, "FID_Struct": 12685, "PERMANENT_": "{9C28849B-FEEC-43DB-A547-15FC717C0101}", "SOURCE_FEA": "483237003593", "SOURCE_DAT": "{092B06A5-744D-461B-BB91-876E463350D0}", "SOURCE_D_1": "TNMC VWE DB Build - Vol Update Schools", "SOURCE_ORI": "Oak Ridge National Laboratory, Geographic Information Sciences and Technology Group", "DATA_SECUR": 5, "DISTRIBUTI": "E4", "LOADDATE": "2016\/08\/12", "FTYPE": 730, "FCODE": 73003, "NAME": "Seele Elementary School", "ISLANDMARK": 2, "POINTLOCAT": 1, "ADMINTYPE": 0, "ADDRESSBUI": null, "ADDRESS": "540 Howard Street", "CITY": "New Braunfels", "STATE": "TX", "ZIPCODE": "78130", "GNIS_ID": null, "FOOT_ID": null, "COMPLEX_ID": null, "FID_txdot_": 47, "CNTY_NM": "Comal", "CNTY_NBR": 46, "FIPS": 48091, "Shape_Leng": 1.94903665755 }, "geometry": { "type": "Point", "coordinates": [ -98.139272599550793, 29.708767499720409 ] } },
{ "type": "Feature", "properties": { "OBJECTID": 4323, "FID_Struct": 14679, "PERMANENT_": "{1BDF8686-95D7-4895-93A0-56946BD10BDF}", "SOURCE_FEA": "481473000970", "SOURCE_DAT": "{CC19ABE0-361F-4846-B852-AA57C04368C8}", "SOURCE_D_1": "NSD TNMC VWE Database Build - Reviewed Schools", "SOURCE_ORI": "Oak Ridge National Laboratory, Geographic Information Sciences and Technology Group", "DATA_SECUR": 5, "DISTRIBUTI": "E4", "LOADDATE": "2011\/12\/20", "FTYPE": 730, "FCODE": 73002, "NAME": "GOODWIN FRAZIER ELEMENTARY SCHOOL", "ISLANDMARK": 2, "POINTLOCAT": 1, "ADMINTYPE": 0, "ADDRESSBUI": null, "ADDRESS": "1441 N BUSINESS 35", "CITY": "New Braunfels", "STATE": "TX", "ZIPCODE": "78130", "GNIS_ID": null, "FOOT_ID": null, "COMPLEX_ID": null, "FID_txdot_": 47, "CNTY_NM": "Comal", "CNTY_NBR": 46, "FIPS": 48091, "Shape_Leng": 1.94903665755 }, "geometry": { "type": "Point", "coordinates": [ -98.093758398231444, 29.708929454131066 ] } },
{ "type": "Feature", "properties": { "OBJECTID": 4326, "FID_Struct": 12687, "PERMANENT_": "{DF7C19D2-9329-4728-8534-DF8919B10152}", "SOURCE_FEA": "481473000967", "SOURCE_DAT": "{CC19ABE0-361F-4846-B852-AA57C04368C8}", "SOURCE_D_1": "NSD TNMC VWE Database Build - Reviewed Schools", "SOURCE_ORI": "Oak Ridge National Laboratory, Geographic Information Sciences and Technology Group", "DATA_SECUR": 5, "DISTRIBUTI": "E4", "LOADDATE": "2011\/12\/20", "FTYPE": 730, "FCODE": 73005, "NAME": "CANYON HIGH SCHOOL", "ISLANDMARK": 2, "POINTLOCAT": 1, "ADMINTYPE": 0, "ADDRESSBUI": null, "ADDRESS": "1510 IH 35 E", "CITY": "New Braunfels", "STATE": "TX", "ZIPCODE": "78130", "GNIS_ID": null, "FOOT_ID": null, "COMPLEX_ID": null, "FID_txdot_": 47, "CNTY_NM": "Comal", "CNTY_NBR": 46, "FIPS": 48091, "Shape_Leng": 1.94903665755 }, "geometry": { "type": "Point", "coordinates": [ -98.087838716983185, 29.709382986735477 ] } },
{ "type": "Feature", "properties": { "OBJECTID": 4357, "FID_Struct": 6701, "PERMANENT_": "{8EA88E5A-A3DC-4094-A254-5EBC1FF0B969}", "SOURCE_FEA": "481473000968", "SOURCE_DAT": "{CC19ABE0-361F-4846-B852-AA57C04368C8}", "SOURCE_D_1": "NSD TNMC VWE Database Build - Reviewed Schools", "SOURCE_ORI": "Oak Ridge National Laboratory, Geographic Information Sciences and Technology Group", "DATA_SECUR": 5, "DISTRIBUTI": "E4", "LOADDATE": "2011\/12\/20", "FTYPE": 730, "FCODE": 73004, "NAME": "CANYON MIDDLE", "ISLANDMARK": 2, "POINTLOCAT": 1, "ADMINTYPE": 0, "ADDRESSBUI": null, "ADDRESS": "2014 FM 1101", "CITY": "New Braunfels", "STATE": "TX", "ZIPCODE": "78130", "GNIS_ID": null, "FOOT_ID": null, "COMPLEX_ID": null, "FID_txdot_": 47, "CNTY_NM": "Comal", "CNTY_NBR": 46, "FIPS": 48091, "Shape_Leng": 1.94903665755 }, "geometry": { "type": "Point", "coordinates": [ -98.07324402509164, 29.712352784653319 ] } },
{ "type": "Feature", "properties": { "OBJECTID": 4364, "FID_Struct": 6656, "PERMANENT_": "{E9F77AC0-FB95-4CAA-A9A3-6579619079BB}", "SOURCE_FEA": "483237003594", "SOURCE_DAT": "{CC19ABE0-361F-4846-B852-AA57C04368C8}", "SOURCE_D_1": "NSD TNMC VWE Database Build - Reviewed Schools", "SOURCE_ORI": "Oak Ridge National Laboratory, Geographic Information Sciences and Technology Group", "DATA_SECUR": 5, "DISTRIBUTI": "E4", "LOADDATE": "2011\/12\/20", "FTYPE": 730, "FCODE": 73002, "NAME": "LAMAR PRI", "ISLANDMARK": 2, "POINTLOCAT": 1, "ADMINTYPE": 0, "ADDRESSBUI": null, "ADDRESS": "240 N CENTRAL AVE", "CITY": "New Braunfels", "STATE": "TX", "ZIPCODE": "78130", "GNIS_ID": null, "FOOT_ID": null, "COMPLEX_ID": null, "FID_txdot_": 47, "CNTY_NM": "Comal", "CNTY_NBR": 46, "FIPS": 48091, "Shape_Leng": 1.94903665755 }, "geometry": { "type": "Point", "coordinates": [ -98.11769429155828, 29.712987715011081 ] } },
{ "type": "Feature", "properties": { "OBJECTID": 4380, "FID_Struct": 4660, "PERMANENT_": "7b03164a-551f-4656-b19d-7de9933371f5", "SOURCE_FEA": "9999999999", "SOURCE_DAT": "{CC44F99C-6658-4584-B606-926E498D5C82}", "SOURCE_D_1": "TNMC VWE DB Build - Vol Update", "SOURCE_ORI": "U.S. Geological Survey", "DATA_SECUR": 5, "DISTRIBUTI": "E4", "LOADDATE": "2016\/08\/12", "FTYPE": 800, "FCODE": 80012, "NAME": "CHRISTUS Santa Rosa Hospital - New Braunfels", "ISLANDMARK": 0, "POINTLOCAT": 1, "ADMINTYPE": 0, "ADDRESSBUI": null, "ADDRESS": "600 North Union Avenue", "CITY": "New Braunfels", "STATE": "TX", "ZIPCODE": "78130", "GNIS_ID": "2015601", "FOOT_ID": null, "COMPLEX_ID": null, "FID_txdot_": 47, "CNTY_NM": "Comal", "CNTY_NBR": 46, "FIPS": 48091, "Shape_Leng": 1.94903665755 }, "geometry": { "type": "Point", "coordinates": [ -98.123348799607356, 29.715517800206385 ] } },
{ "type": "Feature", "properties": { "OBJECTID": 4406, "FID_Struct": 2657, "PERMANENT_": "{C4201F96-2744-4D44-8400-6839CA74F50D}", "SOURCE_FEA": "483237003591", "SOURCE_DAT": "{CC19ABE0-361F-4846-B852-AA57C04368C8}", "SOURCE_D_1": "NSD TNMC VWE Database Build - Reviewed Schools", "SOURCE_ORI": "Oak Ridge National Laboratory, Geographic Information Sciences and Technology Group", "DATA_SECUR": 5, "DISTRIBUTI": "E4", "LOADDATE": "2011\/12\/20", "FTYPE": 730, "FCODE": 73005, "NAME": "NEW BRAUNFELS H S", "ISLANDMARK": 2, "POINTLOCAT": 1, "ADMINTYPE": 0, "ADDRESSBUI": null, "ADDRESS": "2551 LOOP 337 N", "CITY": "New Braunfels", "STATE": "TX", "ZIPCODE": "78130", "GNIS_ID": null, "FOOT_ID": null, "COMPLEX_ID": null, "FID_txdot_": 47, "CNTY_NM": "Comal", "CNTY_NBR": 46, "FIPS": 48091, "Shape_Leng": 1.94903665755 }, "geometry": { "type": "Point", "coordinates": [ -98.14995049481945, 29.718688230577413 ] } },
{ "type": "Feature", "properties": { "OBJECTID": 4410, "FID_Struct": 6654, "PERMANENT_": "{D420E8DA-5454-4E12-9195-1C772EEFF7D9}", "SOURCE_FEA": "AA001045", "SOURCE_DAT": "{CC19ABE0-361F-4846-B852-AA57C04368C8}", "SOURCE_D_1": "NSD TNMC VWE Database Build - Reviewed Schools", "SOURCE_ORI": "Oak Ridge National Laboratory, Geographic Information Sciences and Technology Group", "DATA_SECUR": 5, "DISTRIBUTI": "E4", "LOADDATE": "2011\/12\/20", "FTYPE": 730, "FCODE": 73002, "NAME": "NEW BRAUNFELS CHRISTIAN ACADEMY", "ISLANDMARK": 2, "POINTLOCAT": 1, "ADMINTYPE": 0, "ADDRESSBUI": null, "ADDRESS": null, "CITY": null, "STATE": "TX", "ZIPCODE": "-", "GNIS_ID": null, "FOOT_ID": null, "COMPLEX_ID": null, "FID_txdot_": 47, "CNTY_NM": "Comal", "CNTY_NBR": 46, "FIPS": 48091, "Shape_Leng": 1.94903665755 }, "geometry": { "type": "Point", "coordinates": [ -98.182634707925388, 29.719070095308723 ] } },
{ "type": "Feature", "properties": { "OBJECTID": 4445, "FID_Struct": 10725, "PERMANENT_": "{45D2784F-D4B1-4B32-B4E0-EE0154E464ED}", "SOURCE_FEA": "483237021191", "SOURCE_DAT": "{CC19ABE0-361F-4846-B852-AA57C04368C8}", "SOURCE_D_1": "NSD TNMC VWE Database Build - Reviewed Schools", "SOURCE_ORI": "Oak Ridge National Laboratory, Geographic Information Sciences and Technology Group", "DATA_SECUR": 5, "DISTRIBUTI": "E4", "LOADDATE": "2011\/12\/20", "FTYPE": 730, "FCODE": 73004, "NAME": "OAKRUN SCHOOL", "ISLANDMARK": 2, "POINTLOCAT": 1, "ADMINTYPE": 0, "ADDRESSBUI": null, "ADDRESS": "415 TIMBER HOLLOW", "CITY": "New Braunfels", "STATE": "TX", "ZIPCODE": "78132", "GNIS_ID": null, "FOOT_ID": null, "COMPLEX_ID": null, "FID_txdot_": 47, "CNTY_NM": "Comal", "CNTY_NBR": 46, "FIPS": 48091, "Shape_Leng": 1.94903665755 }, "geometry": { "type": "Point", "coordinates": [ -98.17396266234698, 29.724500166749351 ] } },
{ "type": "Feature", "properties": { "OBJECTID": 4460, "FID_Struct": 8708, "PERMANENT_": "a5cc5edb-558c-4c20-8160-7b3a68036c06", "SOURCE_FEA": "10152706", "SOURCE_DAT": "{43CAF7AD-177F-413D-90DA-C94E9789FEC8}", "SOURCE_D_1": "NSD TNMC VWE Database Build - Reviewed features", "SOURCE_ORI": "U.S. Geological Survey", "DATA_SECUR": 5, "DISTRIBUTI": "E4", "LOADDATE": "2009\/12\/24", "FTYPE": 740, "FCODE": 74026, "NAME": "New Braunfels Fire Department Station 3", "ISLANDMARK": 2, "POINTLOCAT": 1, "ADMINTYPE": 0, "ADDRESSBUI": null, "ADDRESS": "1333 Hanz Drive", "CITY": "New Braunfels", "STATE": "TX", "ZIPCODE": "78130", "GNIS_ID": "2552196", "FOOT_ID": null, "COMPLEX_ID": null, "FID_txdot_": 47, "CNTY_NM": "Comal", "CNTY_NBR": 46, "FIPS": 48091, "Shape_Leng": 1.94903665755 }, "geometry": { "type": "Point", "coordinates": [ -98.107087277256028, 29.725807793594868 ] } },
{ "type": "Feature", "properties": { "OBJECTID": 4490, "FID_Struct": 2660, "PERMANENT_": "{26712374-0E06-47C7-96B3-9A5D2ECC6052}", "SOURCE_FEA": "9999999999", "SOURCE_DAT": "{CC44F99C-6658-4584-B606-926E498D5C82}", "SOURCE_D_1": "TNMC VWE DB Build - Vol Update", "SOURCE_ORI": "U.S. Geological Survey", "DATA_SECUR": 5, "DISTRIBUTI": "E4", "LOADDATE": "2016\/08\/12", "FTYPE": 800, "FCODE": 80012, "NAME": "Warm Springs Specialty Hospital of New Braunfels", "ISLANDMARK": 2, "POINTLOCAT": 1, "ADMINTYPE": 0, "ADDRESSBUI": null, "ADDRESS": "1445 Hanz Drive", "CITY": "New Braunfels", "STATE": "TX", "ZIPCODE": "78130", "GNIS_ID": "2719018", "FOOT_ID": null, "COMPLEX_ID": null, "FID_txdot_": 47, "CNTY_NM": "Comal", "CNTY_NBR": 46, "FIPS": 48091, "Shape_Leng": 1.94903665755 }, "geometry": { "type": "Point", "coordinates": [ -98.10267779964073, 29.729237400485715 ] } },
{ "type": "Feature", "properties": { "OBJECTID": 4548, "FID_Struct": 571, "PERMANENT_": "{20E7DC0C-121B-4C43-87F2-4C6298A96AE8}", "SOURCE_FEA": "A0771777", "SOURCE_DAT": "{CC19ABE0-361F-4846-B852-AA57C04368C8}", "SOURCE_D_1": "NSD TNMC VWE Database Build - Reviewed Schools", "SOURCE_ORI": "Oak Ridge National Laboratory, Geographic Information Sciences and Technology Group", "DATA_SECUR": 5, "DISTRIBUTI": "E4", "LOADDATE": "2011\/12\/20", "FTYPE": 730, "FCODE": 73003, "NAME": "I'CENTO INC", "ISLANDMARK": 2, "POINTLOCAT": 1, "ADMINTYPE": 0, "ADDRESSBUI": null, "ADDRESS": null, "CITY": null, "STATE": "TX", "ZIPCODE": "-", "GNIS_ID": null, "FOOT_ID": null, "COMPLEX_ID": null, "FID_txdot_": 47, "CNTY_NM": "Comal", "CNTY_NBR": 46, "FIPS": 48091, "Shape_Leng": 1.94903665755 }, "geometry": { "type": "Point", "coordinates": [ -98.12860206703175, 29.734984739254344 ] } },
{ "type": "Feature", "properties": { "OBJECTID": 4609, "FID_Struct": 2532, "PERMANENT_": "{65A9E4BC-7200-41B4-BECD-A4C623D214AB}", "SOURCE_FEA": "A0771797", "SOURCE_DAT": "{092B06A5-744D-461B-BB91-876E463350D0}", "SOURCE_D_1": "TNMC VWE DB Build - Vol Update Schools", "SOURCE_ORI": "Oak Ridge National Laboratory, Geographic Information Sciences and Technology Group", "DATA_SECUR": 5, "DISTRIBUTI": "E4", "LOADDATE": "2016\/08\/12", "FTYPE": 730, "FCODE": 73002, "NAME": "Lighthouse Christian Learning Center", "ISLANDMARK": 2, "POINTLOCAT": 1, "ADMINTYPE": 0, "ADDRESSBUI": null, "ADDRESS": "2420 Bulverde Road", "CITY": "Bulverde", "STATE": "TX", "ZIPCODE": "78163", "GNIS_ID": null, "FOOT_ID": null, "COMPLEX_ID": null, "FID_txdot_": 47, "CNTY_NM": "Comal", "CNTY_NBR": 46, "FIPS": 48091, "Shape_Leng": 1.94903665755 }, "geometry": { "type": "Point", "coordinates": [ -98.450738400156979, 29.742687199654597 ] } },
{ "type": "Feature", "properties": { "OBJECTID": 4618, "FID_Struct": 10627, "PERMANENT_": "2f4de856-f82c-4af3-bf3f-314a1981f7e4", "SOURCE_FEA": "10407801", "SOURCE_DAT": "{CC44F99C-6658-4584-B606-926E498D5C82}", "SOURCE_D_1": "TNMC VWE DB Build - Vol Update", "SOURCE_ORI": "U.S. Geological Survey", "DATA_SECUR": 5, "DISTRIBUTI": "E4", "LOADDATE": "2016\/08\/12", "FTYPE": 740, "FCODE": 74026, "NAME": "Bulverde Fire Department Station 1 Headquarters", "ISLANDMARK": 2, "POINTLOCAT": 1, "ADMINTYPE": 0, "ADDRESSBUI": null, "ADDRESS": "30240 Cougar Bend", "CITY": "Bulverde", "STATE": "TX", "ZIPCODE": "78163", "GNIS_ID": "2552274", "FOOT_ID": null, "COMPLEX_ID": null, "FID_txdot_": 47, "CNTY_NM": "Comal", "CNTY_NBR": 46, "FIPS": 48091, "Shape_Leng": 1.94903665755 }, "geometry": { "type": "Point", "coordinates": [ -98.451826387377821, 29.744531917813788 ] } },
{ "type": "Feature", "properties": { "OBJECTID": 4649, "FID_Struct": 8732, "PERMANENT_": "{A84E4F50-4FC0-4FB1-901D-D618193104BB}", "SOURCE_FEA": "481473011768", "SOURCE_DAT": "{CC19ABE0-361F-4846-B852-AA57C04368C8}", "SOURCE_D_1": "NSD TNMC VWE Database Build - Reviewed Schools", "SOURCE_ORI": "Oak Ridge National Laboratory, Geographic Information Sciences and Technology Group", "DATA_SECUR": 5, "DISTRIBUTI": "E4", "LOADDATE": "2011\/12\/20", "FTYPE": 730, "FCODE": 73002, "NAME": "OAK CREEK ESTATES EL", "ISLANDMARK": 2, "POINTLOCAT": 1, "ADMINTYPE": 0, "ADDRESSBUI": null, "ADDRESS": "1404 IH 35 N", "CITY": "New Braunfels", "STATE": "TX", "ZIPCODE": "78130", "GNIS_ID": null, "FOOT_ID": null, "COMPLEX_ID": null, "FID_txdot_": 47, "CNTY_NM": "Comal", "CNTY_NBR": 46, "FIPS": 48091, "Shape_Leng": 1.94903665755 }, "geometry": { "type": "Point", "coordinates": [ -98.071322578574097, 29.749569342551183 ] } },
{ "type": "Feature", "properties": { "OBJECTID": 4652, "FID_Struct": 14483, "PERMANENT_": "{1FE4F4EE-C912-4A48-A6C5-E7FAEF74B655}", "SOURCE_FEA": "A0503410", "SOURCE_DAT": "{092B06A5-744D-461B-BB91-876E463350D0}", "SOURCE_D_1": "TNMC VWE DB Build - Vol Update Schools", "SOURCE_ORI": "Oak Ridge National Laboratory, Geographic Information Sciences and Technology Group", "DATA_SECUR": 5, "DISTRIBUTI": "E4", "LOADDATE": "2016\/08\/12", "FTYPE": 730, "FCODE": 73002, "NAME": "Geneva School of Boerne", "ISLANDMARK": 2, "POINTLOCAT": 1, "ADMINTYPE": 0, "ADDRESSBUI": null, "ADDRESS": "113 Cascade Caverns Road", "CITY": "Boerne", "STATE": "TX", "ZIPCODE": "78015", "GNIS_ID": null, "FOOT_ID": null, "COMPLEX_ID": null, "FID_txdot_": 50, "CNTY_NM": "Kendall", "CNTY_NBR": 131, "FIPS": 48259, "Shape_Leng": 1.6063432560699999 }, "geometry": { "type": "Point", "coordinates": [ -98.690679800032683, 29.750584499974764 ] } },
{ "type": "Feature", "properties": { "OBJECTID": 4653, "FID_Struct": 6603, "PERMANENT_": "e571fe5f-dbae-4548-8084-9028f974ee52", "SOURCE_FEA": "10415525", "SOURCE_DAT": "{43CAF7AD-177F-413D-90DA-C94E9789FEC8}", "SOURCE_D_1": "NSD TNMC VWE Database Build - Reviewed features", "SOURCE_ORI": "U.S. Geological Survey", "DATA_SECUR": 5, "DISTRIBUTI": "E4", "LOADDATE": "2009\/12\/24", "FTYPE": 740, "FCODE": 74026, "NAME": "Bulverde Fire Department Station 2", "ISLANDMARK": 2, "POINTLOCAT": 1, "ADMINTYPE": 0, "ADDRESSBUI": null, "ADDRESS": "Circle Oak Drive", "CITY": "Bulverde", "STATE": "TX", "ZIPCODE": "78163", "GNIS_ID": "2552441", "FOOT_ID": null, "COMPLEX_ID": null, "FID_txdot_": 47, "CNTY_NM": "Comal", "CNTY_NBR": 46, "FIPS": 48091, "Shape_Leng": 1.94903665755 }, "geometry": { "type": "Point", "coordinates": [ -98.390976900663418, 29.750912101412382 ] } },
{ "type": "Feature", "properties": { "OBJECTID": 4676, "FID_Struct": 8523, "PERMANENT_": "c2426e8b-f220-49af-863e-f01078265fd4", "SOURCE_FEA": "9999999999", "SOURCE_DAT": "{CC44F99C-6658-4584-B606-926E498D5C82}", "SOURCE_D_1": "TNMC VWE DB Build - Vol Update", "SOURCE_ORI": "U.S. Geological Survey", "DATA_SECUR": 5, "DISTRIBUTI": "E4", "LOADDATE": "2016\/08\/12", "FTYPE": 740, "FCODE": 74026, "NAME": "City of Fair Oaks Ranch Fire Station 3", "ISLANDMARK": 2, "POINTLOCAT": 1, "ADMINTYPE": 0, "ADDRESSBUI": null, "ADDRESS": "30955 Meadow Creek Trail", "CITY": "Fair Oaks Ranch", "STATE": "TX", "ZIPCODE": "78015", "GNIS_ID": "2551875", "FOOT_ID": null, "COMPLEX_ID": null, "FID_txdot_": 47, "CNTY_NM": "Comal", "CNTY_NBR": 46, "FIPS": 48091, "Shape_Leng": 1.94903665755 }, "geometry": { "type": "Point", "coordinates": [ -98.62321619986767, 29.754736999912666 ] } },
{ "type": "Feature", "properties": { "OBJECTID": 4704, "FID_Struct": 12525, "PERMANENT_": "{B834EF02-1BEF-45FB-A6C3-2317CFFDE913}", "SOURCE_FEA": "481071008859", "SOURCE_DAT": "{092B06A5-744D-461B-BB91-876E463350D0}", "SOURCE_D_1": "TNMC VWE DB Build - Vol Update Schools", "SOURCE_ORI": "Oak Ridge National Laboratory, Geographic Information Sciences and Technology Group", "DATA_SECUR": 5, "DISTRIBUTI": "E4", "LOADDATE": "2016\/08\/12", "FTYPE": 730, "FCODE": 73004, "NAME": "Boerne Middle School South", "ISLANDMARK": 2, "POINTLOCAT": 1, "ADMINTYPE": 0, "ADDRESSBUI": null, "ADDRESS": "10 Cascade Caverns Road", "CITY": "Boerne", "STATE": "TX", "ZIPCODE": "78006", "GNIS_ID": null, "FOOT_ID": null, "COMPLEX_ID": null, "FID_txdot_": 50, "CNTY_NM": "Kendall", "CNTY_NBR": 131, "FIPS": 48259, "Shape_Leng": 1.6063432560699999 }, "geometry": { "type": "Point", "coordinates": [ -98.703583900476588, 29.760255700440268 ] } },
{ "type": "Feature", "properties": { "OBJECTID": 4706, "FID_Struct": 480, "PERMANENT_": "{71D0D821-34A7-492B-BF6B-8539B69DB79E}", "SOURCE_FEA": "481473000965", "SOURCE_DAT": "{092B06A5-744D-461B-BB91-876E463350D0}", "SOURCE_D_1": "TNMC VWE DB Build - Vol Update Schools", "SOURCE_ORI": "Oak Ridge National Laboratory, Geographic Information Sciences and Technology Group", "DATA_SECUR": 5, "DISTRIBUTI": "E4", "LOADDATE": "2016\/08\/12", "FTYPE": 730, "FCODE": 73003, "NAME": "Rahe Bulverde Elementary School", "ISLANDMARK": 2, "POINTLOCAT": 1, "ADMINTYPE": 0, "ADDRESSBUI": null, "ADDRESS": "1715 East Ammann Road", "CITY": "Bulverde", "STATE": "TX", "ZIPCODE": "78163", "GNIS_ID": null, "FOOT_ID": null, "COMPLEX_ID": null, "FID_txdot_": 47, "CNTY_NM": "Comal", "CNTY_NBR": 46, "FIPS": 48091, "Shape_Leng": 1.94903665755 }, "geometry": { "type": "Point", "coordinates": [ -98.459668200427075, 29.760835600382677 ] } },
{ "type": "Feature", "properties": { "OBJECTID": 4717, "FID_Struct": 14482, "PERMANENT_": "{755F94BD-75DA-451A-B6A0-A797EE6D8B2D}", "SOURCE_FEA": "481071008860", "SOURCE_DAT": "{092B06A5-744D-461B-BB91-876E463350D0}", "SOURCE_D_1": "TNMC VWE DB Build - Vol Update Schools", "SOURCE_ORI": "Oak Ridge National Laboratory, Geographic Information Sciences and Technology Group", "DATA_SECUR": 5, "DISTRIBUTI": "E4", "LOADDATE": "2016\/08\/12", "FTYPE": 730, "FCODE": 73003, "NAME": "Kendall Elementary School", "ISLANDMARK": 2, "POINTLOCAT": 1, "ADMINTYPE": 0, "ADDRESSBUI": null, "ADDRESS": "141 Old San Antonio Road", "CITY": "Boerne", "STATE": "TX", "ZIPCODE": "78006", "GNIS_ID": null, "FOOT_ID": null, "COMPLEX_ID": null, "FID_txdot_": 50, "CNTY_NM": "Kendall", "CNTY_NBR": 131, "FIPS": 48259, "Shape_Leng": 1.6063432560699999 }, "geometry": { "type": "Point", "coordinates": [ -98.702965300008543, 29.76230709989278 ] } },
{ "type": "Feature", "properties": { "OBJECTID": 4737, "FID_Struct": 411, "PERMANENT_": "{4867BF61-70ED-4A0F-B084-4AF210B02C31}", "SOURCE_FEA": "481071008685", "SOURCE_DAT": "{092B06A5-744D-461B-BB91-876E463350D0}", "SOURCE_D_1": "TNMC VWE DB Build - Vol Update Schools", "SOURCE_ORI": "Oak Ridge National Laboratory, Geographic Information Sciences and Technology Group", "DATA_SECUR": 5, "DISTRIBUTI": "E4", "LOADDATE": "2016\/08\/12", "FTYPE": 730, "FCODE": 73002, "NAME": "Meadowland Charter School", "ISLANDMARK": 2, "POINTLOCAT": 1, "ADMINTYPE": 0, "ADDRESSBUI": null, "ADDRESS": "121 Old San Antonio Road", "CITY": "Boerne", "STATE": "TX", "ZIPCODE": "78006", "GNIS_ID": null, "FOOT_ID": null, "COMPLEX_ID": null, "FID_txdot_": 50, "CNTY_NM": "Kendall", "CNTY_NBR": 131, "FIPS": 48259, "Shape_Leng": 1.6063432560699999 }, "geometry": { "type": "Point", "coordinates": [ -98.709153800307604, 29.7657420001932 ] } },
{ "type": "Feature", "properties": { "OBJECTID": 4738, "FID_Struct": 12523, "PERMANENT_": "2bdbd1ac-e94b-46c4-a3cc-be7a0beeee3c", "SOURCE_FEA": "TX000892", "SOURCE_DAT": "{CC44F99C-6658-4584-B606-926E498D5C82}", "SOURCE_D_1": "TNMC VWE DB Build - Vol Update", "SOURCE_ORI": "U.S. Geological Survey", "DATA_SECUR": 5, "DISTRIBUTI": "E4", "LOADDATE": "2016\/08\/12", "FTYPE": 740, "FCODE": 74034, "NAME": "Boerne Police Department", "ISLANDMARK": 0, "POINTLOCAT": 1, "ADMINTYPE": 6, "ADDRESSBUI": "City of Boerne Police and Municipal Court Complex", "ADDRESS": "124 Old San Antonio Road", "CITY": "Boerne", "STATE": "TX", "ZIPCODE": "78006", "GNIS_ID": "2041937", "FOOT_ID": null, "COMPLEX_ID": null, "FID_txdot_": 50, "CNTY_NM": "Kendall", "CNTY_NBR": 131, "FIPS": 48259, "Shape_Leng": 1.6063432560699999 }, "geometry": { "type": "Point", "coordinates": [ -98.712575006631198, 29.765855613345934 ] } },
{ "type": "Feature", "properties": { "OBJECTID": 4851, "FID_Struct": 2434, "PERMANENT_": "6a5abda9-6043-4d9f-b307-da6b937f4e08", "SOURCE_FEA": "10415528", "SOURCE_DAT": "{43CAF7AD-177F-413D-90DA-C94E9789FEC8}", "SOURCE_D_1": "NSD TNMC VWE Database Build - Reviewed features", "SOURCE_ORI": "U.S. Geological Survey", "DATA_SECUR": 5, "DISTRIBUTI": "E4", "LOADDATE": "2009\/12\/24", "FTYPE": 740, "FCODE": 74026, "NAME": "Bulverde Fire Department Station 3", "ISLANDMARK": 2, "POINTLOCAT": 4, "ADMINTYPE": 0, "ADDRESSBUI": null, "ADDRESS": "Nixon Drive", "CITY": "Boerne", "STATE": "TX", "ZIPCODE": "78006", "GNIS_ID": "2552440", "FOOT_ID": null, "COMPLEX_ID": null, "FID_txdot_": 47, "CNTY_NM": "Comal", "CNTY_NBR": 46, "FIPS": 48091, "Shape_Leng": 1.94903665755 }, "geometry": { "type": "Point", "coordinates": [ -98.5908040002044, 29.778982901239942 ] } },
{ "type": "Feature", "properties": { "OBJECTID": 4893, "FID_Struct": 6489, "PERMANENT_": "{C8839FCA-D8FE-489E-A219-D93950B06BE9}", "SOURCE_FEA": "481071011291", "SOURCE_DAT": "{092B06A5-744D-461B-BB91-876E463350D0}", "SOURCE_D_1": "TNMC VWE DB Build - Vol Update Schools", "SOURCE_ORI": "Oak Ridge National Laboratory, Geographic Information Sciences and Technology Group", "DATA_SECUR": 5, "DISTRIBUTI": "E4", "LOADDATE": "2016\/08\/12", "FTYPE": 730, "FCODE": 73003, "NAME": "Cibolo Creek Elementary", "ISLANDMARK": 2, "POINTLOCAT": 1, "ADMINTYPE": 0, "ADDRESSBUI": null, "ADDRESS": "300 Herff Ranch Boulevard", "CITY": "Boerne", "STATE": "TX", "ZIPCODE": "78006", "GNIS_ID": null, "FOOT_ID": null, "COMPLEX_ID": null, "FID_txdot_": 50, "CNTY_NM": "Kendall", "CNTY_NBR": 131, "FIPS": 48259, "Shape_Leng": 1.6063432560699999 }, "geometry": { "type": "Point", "coordinates": [ -98.697905800512274, 29.783065200098974 ] } },
{ "type": "Feature", "properties": { "OBJECTID": 4906, "FID_Struct": 12524, "PERMANENT_": "{7FDED13F-0354-4C97-8097-FFFF6539F775}", "SOURCE_FEA": null, "SOURCE_DAT": "{092B06A5-744D-461B-BB91-876E463350D0}", "SOURCE_D_1": "TNMC VWE DB Build - Vol Update Schools", "SOURCE_ORI": "Oak Ridge National Laboratory, Geographic Information Sciences and Technology Group", "DATA_SECUR": 5, "DISTRIBUTI": "E4", "LOADDATE": "2016\/07\/27", "FTYPE": 730, "FCODE": 73005, "NAME": "Boerne - Samuel V. Champion High School", "ISLANDMARK": 0, "POINTLOCAT": 1, "ADMINTYPE": 0, "ADDRESSBUI": null, "ADDRESS": "201 Charger Boulevard", "CITY": "Boerne", "STATE": "TX", "ZIPCODE": "78006", "GNIS_ID": null, "FOOT_ID": null, "COMPLEX_ID": null, "FID_txdot_": 50, "CNTY_NM": "Kendall", "CNTY_NBR": 131, "FIPS": 48259, "Shape_Leng": 1.6063432560699999 }, "geometry": { "type": "Point", "coordinates": [ -98.7046292004772, 29.785332999818138 ] } },
{ "type": "Feature", "properties": { "OBJECTID": 4945, "FID_Struct": 6657, "PERMANENT_": "{090DFA13-1175-4067-94B4-73BD0248C413}", "SOURCE_FEA": "481473009179", "SOURCE_DAT": "{CC19ABE0-361F-4846-B852-AA57C04368C8}", "SOURCE_D_1": "NSD TNMC VWE Database Build - Reviewed Schools", "SOURCE_ORI": "Oak Ridge National Laboratory, Geographic Information Sciences and Technology Group", "DATA_SECUR": 5, "DISTRIBUTI": "E4", "LOADDATE": "2011\/12\/20", "FTYPE": 730, "FCODE": 73003, "NAME": "HOFFMANN LANE ELEMENTARY SCHOOL", "ISLANDMARK": 2, "POINTLOCAT": 1, "ADMINTYPE": 0, "ADDRESSBUI": null, "ADDRESS": "4600 FM 306", "CITY": "New Braunfels", "STATE": "TX", "ZIPCODE": "78132", "GNIS_ID": null, "FOOT_ID": null, "COMPLEX_ID": null, "FID_txdot_": 47, "CNTY_NM": "Comal", "CNTY_NBR": 46, "FIPS": 48091, "Shape_Leng": 1.94903665755 }, "geometry": { "type": "Point", "coordinates": [ -98.104407501704827, 29.79162549232268 ] } },
{ "type": "Feature", "properties": { "OBJECTID": 4957, "FID_Struct": 12609, "PERMANENT_": "{DF77BC28-EEB9-4042-8BBE-93F5CDA283A9}", "SOURCE_FEA": "02060126", "SOURCE_DAT": "{CC19ABE0-361F-4846-B852-AA57C04368C8}", "SOURCE_D_1": "NSD TNMC VWE Database Build - Reviewed Schools", "SOURCE_ORI": "Oak Ridge National Laboratory, Geographic Information Sciences and Technology Group", "DATA_SECUR": 5, "DISTRIBUTI": "E4", "LOADDATE": "2011\/12\/20", "FTYPE": 730, "FCODE": 73002, "NAME": "BRACKEN CHRISTIAN SCHOOL", "ISLANDMARK": 2, "POINTLOCAT": 1, "ADMINTYPE": 0, "ADDRESSBUI": null, "ADDRESS": null, "CITY": null, "STATE": "TX", "ZIPCODE": "-", "GNIS_ID": null, "FOOT_ID": null, "COMPLEX_ID": null, "FID_txdot_": 47, "CNTY_NM": "Comal", "CNTY_NBR": 46, "FIPS": 48091, "Shape_Leng": 1.94903665755 }, "geometry": { "type": "Point", "coordinates": [ -98.428316263684565, 29.793615707299125 ] } },
{ "type": "Feature", "properties": { "OBJECTID": 4964, "FID_Struct": 10549, "PERMANENT_": "{D30F7E12-3B9E-4740-B221-3566D37F19D2}", "SOURCE_FEA": "481071006367", "SOURCE_DAT": "{092B06A5-744D-461B-BB91-876E463350D0}", "SOURCE_D_1": "TNMC VWE DB Build - Vol Update Schools", "SOURCE_ORI": "Oak Ridge National Laboratory, Geographic Information Sciences and Technology Group", "DATA_SECUR": 5, "DISTRIBUTI": "E4", "LOADDATE": "2015\/12\/07", "FTYPE": 730, "FCODE": 73002, "NAME": "Fabra Elementary School", "ISLANDMARK": 2, "POINTLOCAT": 1, "ADMINTYPE": 0, "ADDRESSBUI": null, "ADDRESS": "238 Lomann Street", "CITY": "Boerne", "STATE": "TX", "ZIPCODE": "78006", "GNIS_ID": "2007019", "FOOT_ID": null, "COMPLEX_ID": null, "FID_txdot_": 50, "CNTY_NM": "Kendall", "CNTY_NBR": 131, "FIPS": 48259, "Shape_Leng": 1.6063432560699999 }, "geometry": { "type": "Point", "coordinates": [ -98.736044057387289, 29.794771628408 ] } },
{ "type": "Feature", "properties": { "OBJECTID": 4966, "FID_Struct": 14577, "PERMANENT_": "{00310BA0-56F8-49D5-87AF-C1AE7F67083A}", "SOURCE_FEA": "481473007227", "SOURCE_DAT": "{CC19ABE0-361F-4846-B852-AA57C04368C8}", "SOURCE_D_1": "NSD TNMC VWE Database Build - Reviewed Schools", "SOURCE_ORI": "Oak Ridge National Laboratory, Geographic Information Sciences and Technology Group", "DATA_SECUR": 5, "DISTRIBUTI": "E4", "LOADDATE": "2011\/12\/20", "FTYPE": 730, "FCODE": 73004, "NAME": "ARLON R SEAY INTERMEDIATE", "ISLANDMARK": 2, "POINTLOCAT": 1, "ADMINTYPE": 0, "ADDRESSBUI": null, "ADDRESS": "20911 HWY 46 W", "CITY": "Spring Branch", "STATE": "TX", "ZIPCODE": "78070", "GNIS_ID": null, "FOOT_ID": null, "COMPLEX_ID": null, "FID_txdot_": 47, "CNTY_NM": "Comal", "CNTY_NBR": 46, "FIPS": 48091, "Shape_Leng": 1.94903665755 }, "geometry": { "type": "Point", "coordinates": [ -98.43356359828141, 29.795137086807188 ] } },
{ "type": "Feature", "properties": { "OBJECTID": 4978, "FID_Struct": 10548, "PERMANENT_": "{DB448A04-1EFF-48EF-87F4-32576056D49C}", "SOURCE_FEA": "481071000537", "SOURCE_DAT": "{092B06A5-744D-461B-BB91-876E463350D0}", "SOURCE_D_1": "TNMC VWE DB Build - Vol Update Schools", "SOURCE_ORI": "Oak Ridge National Laboratory, Geographic Information Sciences and Technology Group", "DATA_SECUR": 5, "DISTRIBUTI": "E4", "LOADDATE": "2015\/12\/07", "FTYPE": 730, "FCODE": 73004, "NAME": "Boerne Middle School North", "ISLANDMARK": 2, "POINTLOCAT": 1, "ADMINTYPE": 0, "ADDRESSBUI": null, "ADDRESS": "240 West Johns Road", "CITY": "Boerne", "STATE": "TX", "ZIPCODE": "78006", "GNIS_ID": null, "FOOT_ID": null, "COMPLEX_ID": null, "FID_txdot_": 50, "CNTY_NM": "Kendall", "CNTY_NBR": 131, "FIPS": 48259, "Shape_Leng": 1.6063432560699999 }, "geometry": { "type": "Point", "coordinates": [ -98.736486936622782, 29.79610885733797 ] } },
{ "type": "Feature", "properties": { "OBJECTID": 4994, "FID_Struct": 14576, "PERMANENT_": "{CCB72BAD-37E6-44FB-ADCA-5BD5A2B1C07B}", "SOURCE_FEA": "481473007559", "SOURCE_DAT": "{CC19ABE0-361F-4846-B852-AA57C04368C8}", "SOURCE_D_1": "NSD TNMC VWE Database Build - Reviewed Schools", "SOURCE_ORI": "Oak Ridge National Laboratory, Geographic Information Sciences and Technology Group", "DATA_SECUR": 5, "DISTRIBUTI": "E4", "LOADDATE": "2011\/12\/20", "FTYPE": 730, "FCODE": 73004, "NAME": "SPRING BRANCH MIDDLE", "ISLANDMARK": 2, "POINTLOCAT": 1, "ADMINTYPE": 0, "ADDRESSBUI": null, "ADDRESS": "21053 HWY 46 W", "CITY": "Spring Branch", "STATE": "TX", "ZIPCODE": "78070", "GNIS_ID": null, "FOOT_ID": null, "COMPLEX_ID": null, "FID_txdot_": 47, "CNTY_NM": "Comal", "CNTY_NBR": 46, "FIPS": 48091, "Shape_Leng": 1.94903665755 }, "geometry": { "type": "Point", "coordinates": [ -98.4351922084536, 29.797433022715893 ] } },
{ "type": "Feature", "properties": { "OBJECTID": 5006, "FID_Struct": 12610, "PERMANENT_": "{8442A6C4-725D-4D7F-83BC-E347CD504934}", "SOURCE_FEA": "481473021192", "SOURCE_DAT": "{CC19ABE0-361F-4846-B852-AA57C04368C8}", "SOURCE_D_1": "NSD TNMC VWE Database Build - Reviewed Schools", "SOURCE_ORI": "Oak Ridge National Laboratory, Geographic Information Sciences and Technology Group", "DATA_SECUR": 5, "DISTRIBUTI": "E4", "LOADDATE": "2011\/12\/20", "FTYPE": 730, "FCODE": 73002, "NAME": "BILL BROWN ELEMENTARY SCHOOL", "ISLANDMARK": 2, "POINTLOCAT": 1, "ADMINTYPE": 0, "ADDRESSBUI": null, "ADDRESS": "20410 HWY 46 W", "CITY": "Spring Branch", "STATE": "TX", "ZIPCODE": "78070", "GNIS_ID": null, "FOOT_ID": null, "COMPLEX_ID": null, "FID_txdot_": 47, "CNTY_NM": "Comal", "CNTY_NBR": 46, "FIPS": 48091, "Shape_Leng": 1.94903665755 }, "geometry": { "type": "Point", "coordinates": [ -98.42443992935921, 29.798975367219498 ] } },
{ "type": "Feature", "properties": { "OBJECTID": 5008, "FID_Struct": 2435, "PERMANENT_": "{D86DA723-8AE2-4114-9401-2D164DFAB826}", "SOURCE_FEA": "481071000535", "SOURCE_DAT": "{092B06A5-744D-461B-BB91-876E463350D0}", "SOURCE_D_1": "TNMC VWE DB Build - Vol Update Schools", "SOURCE_ORI": "Oak Ridge National Laboratory, Geographic Information Sciences and Technology Group", "DATA_SECUR": 5, "DISTRIBUTI": "E4", "LOADDATE": "2016\/08\/12", "FTYPE": 730, "FCODE": 73005, "NAME": "Boerne High School", "ISLANDMARK": 2, "POINTLOCAT": 1, "ADMINTYPE": 0, "ADDRESSBUI": null, "ADDRESS": "One Greyhound Lane", "CITY": "Boerne", "STATE": "TX", "ZIPCODE": "78006", "GNIS_ID": null, "FOOT_ID": null, "COMPLEX_ID": null, "FID_txdot_": 50, "CNTY_NM": "Kendall", "CNTY_NBR": 131, "FIPS": 48259, "Shape_Leng": 1.6063432560699999 }, "geometry": { "type": "Point", "coordinates": [ -98.710687999651441, 29.799156100373807 ] } },
{ "type": "Feature", "properties": { "OBJECTID": 5018, "FID_Struct": 4491, "PERMANENT_": "22ae7c42-49b4-4e9f-896d-4e4e58d5e42c", "SOURCE_FEA": "9999999999", "SOURCE_DAT": "{CC44F99C-6658-4584-B606-926E498D5C82}", "SOURCE_D_1": "TNMC VWE DB Build - Vol Update", "SOURCE_ORI": "U.S. Geological Survey", "DATA_SECUR": 5, "DISTRIBUTI": "E4", "LOADDATE": "2016\/08\/12", "FTYPE": 740, "FCODE": 74026, "NAME": "Boerne Fire Department", "ISLANDMARK": 2, "POINTLOCAT": 1, "ADMINTYPE": 0, "ADDRESSBUI": null, "ADDRESS": "726 North Main Street", "CITY": "Boerne", "STATE": "TX", "ZIPCODE": "78006", "GNIS_ID": "2041427", "FOOT_ID": null, "COMPLEX_ID": null, "FID_txdot_": 50, "CNTY_NM": "Kendall", "CNTY_NBR": 131, "FIPS": 48259, "Shape_Leng": 1.6063432560699999 }, "geometry": { "type": "Point", "coordinates": [ -98.735676199596924, 29.800470500013603 ] } },
{ "type": "Feature", "properties": { "OBJECTID": 5032, "FID_Struct": 2594, "PERMANENT_": "{CEF82898-B420-4C9E-9E39-EBDAC0BEDA3B}", "SOURCE_FEA": "481473000974", "SOURCE_DAT": "{CC19ABE0-361F-4846-B852-AA57C04368C8}", "SOURCE_D_1": "NSD TNMC VWE Database Build - Reviewed Schools", "SOURCE_ORI": "Oak Ridge National Laboratory, Geographic Information Sciences and Technology Group", "DATA_SECUR": 5, "DISTRIBUTI": "E4", "LOADDATE": "2011\/12\/20", "FTYPE": 730, "FCODE": 73005, "NAME": "SMITHSON VALLEY HIGH SCHOOL", "ISLANDMARK": 2, "POINTLOCAT": 1, "ADMINTYPE": 0, "ADDRESSBUI": null, "ADDRESS": "14001 HWY 46 W", "CITY": "Spring Branch", "STATE": "TX", "ZIPCODE": "78070", "GNIS_ID": null, "FOOT_ID": null, "COMPLEX_ID": null, "FID_txdot_": 47, "CNTY_NM": "Comal", "CNTY_NBR": 46, "FIPS": 48091, "Shape_Leng": 1.94903665755 }, "geometry": { "type": "Point", "coordinates": [ -98.360050215544959, 29.802641258387439 ] } },
{ "type": "Feature", "properties": { "OBJECTID": 5037, "FID_Struct": 14486, "PERMANENT_": "{9F6F8DF0-B17C-487D-9AE5-234D0042B6DA}", "SOURCE_FEA": "481071000538", "SOURCE_DAT": "{092B06A5-744D-461B-BB91-876E463350D0}", "SOURCE_D_1": "TNMC VWE DB Build - Vol Update Schools", "SOURCE_ORI": "Oak Ridge National Laboratory, Geographic Information Sciences and Technology Group", "DATA_SECUR": 5, "DISTRIBUTI": "E4", "LOADDATE": "2016\/08\/12", "FTYPE": 730, "FCODE": 73003, "NAME": "Curington Elementary School", "ISLANDMARK": 2, "POINTLOCAT": 1, "ADMINTYPE": 0, "ADDRESSBUI": null, "ADDRESS": "601 Adler Road", "CITY": "Boerne", "STATE": "TX", "ZIPCODE": "78006", "GNIS_ID": null, "FOOT_ID": null, "COMPLEX_ID": null, "FID_txdot_": 50, "CNTY_NM": "Kendall", "CNTY_NBR": 131, "FIPS": 48259, "Shape_Leng": 1.6063432560699999 }, "geometry": { "type": "Point", "coordinates": [ -98.727691899761339, 29.803433300306608 ] } },
{ "type": "Feature", "properties": { "OBJECTID": 5066, "FID_Struct": 14487, "PERMANENT_": "941afa6c-0524-4c81-b807-7f77d12e67ce", "SOURCE_FEA": "TX001091", "SOURCE_DAT": "{CC44F99C-6658-4584-B606-926E498D5C82}", "SOURCE_D_1": "TNMC VWE DB Build - Vol Update", "SOURCE_ORI": "U.S. Geological Survey", "DATA_SECUR": 5, "DISTRIBUTI": "E4", "LOADDATE": "2016\/08\/12", "FTYPE": 740, "FCODE": 74034, "NAME": "Kendall County Sheriff's Office", "ISLANDMARK": 0, "POINTLOCAT": 1, "ADMINTYPE": 5, "ADDRESSBUI": "County Law Enforcement Center", "ADDRESS": "6 Staudt Street", "CITY": "Boerne", "STATE": "TX", "ZIPCODE": "78006", "GNIS_ID": "2750485", "FOOT_ID": null, "COMPLEX_ID": null, "FID_txdot_": 50, "CNTY_NM": "Kendall", "CNTY_NBR": 131, "FIPS": 48259, "Shape_Leng": 1.6063432560699999 }, "geometry": { "type": "Point", "coordinates": [ -98.722899730038478, 29.806258170678063 ] } },
{ "type": "Feature", "properties": { "OBJECTID": 5089, "FID_Struct": 6491, "PERMANENT_": "{035B42DC-6498-4198-987E-F8122631057A}", "SOURCE_FEA": null, "SOURCE_DAT": "{092B06A5-744D-461B-BB91-876E463350D0}", "SOURCE_D_1": "TNMC VWE DB Build - Vol Update Schools", "SOURCE_ORI": "Oak Ridge National Laboratory, Geographic Information Sciences and Technology Group", "DATA_SECUR": 5, "DISTRIBUTI": "E4", "LOADDATE": "2016\/07\/27", "FTYPE": 730, "FCODE": 73002, "NAME": "Hill Country Montessori School", "ISLANDMARK": 0, "POINTLOCAT": 1, "ADMINTYPE": 0, "ADDRESSBUI": null, "ADDRESS": "50 Stone Wall Drive", "CITY": "Boerne", "STATE": "TX", "ZIPCODE": "78006", "GNIS_ID": null, "FOOT_ID": null, "COMPLEX_ID": null, "FID_txdot_": 50, "CNTY_NM": "Kendall", "CNTY_NBR": 131, "FIPS": 48259, "Shape_Leng": 1.6063432560699999 }, "geometry": { "type": "Point", "coordinates": [ -98.611789300635678, 29.811434100003737 ] } },
{ "type": "Feature", "properties": { "OBJECTID": 5130, "FID_Struct": 6702, "PERMANENT_": "{7BB5DF06-2DD5-44C3-8DC5-A551169BE86A}", "SOURCE_FEA": "483897004448", "SOURCE_DAT": "{092B06A5-744D-461B-BB91-876E463350D0}", "SOURCE_D_1": "TNMC VWE DB Build - Vol Update Schools", "SOURCE_ORI": "Oak Ridge National Laboratory, Geographic Information Sciences and Technology Group", "DATA_SECUR": 5, "DISTRIBUTI": "E4", "LOADDATE": "2015\/10\/30", "FTYPE": 730, "FCODE": 73003, "NAME": "Bowie Elementary School", "ISLANDMARK": 2, "POINTLOCAT": 1, "ADMINTYPE": 0, "ADDRESSBUI": null, "ADDRESS": "4020 Monterrey Oak", "CITY": "San Marcos", "STATE": "TX", "ZIPCODE": "78666", "GNIS_ID": "2006615", "FOOT_ID": null, "COMPLEX_ID": null, "FID_txdot_": 59, "CNTY_NM": "Hays", "CNTY_NBR": 106, "FIPS": 48209, "Shape_Leng": 1.8032264710599999 }, "geometry": { "type": "Point", "coordinates": [ -97.941451866810155, 29.820800251330581 ] } },
{ "type": "Feature", "properties": { "OBJECTID": 5132, "FID_Struct": 2595, "PERMANENT_": "{1847FF53-C94E-467F-AB98-C31CD54FA9E0}", "SOURCE_FEA": "481473000966", "SOURCE_DAT": "{CC19ABE0-361F-4846-B852-AA57C04368C8}", "SOURCE_D_1": "NSD TNMC VWE Database Build - Reviewed Schools", "SOURCE_ORI": "Oak Ridge National Laboratory, Geographic Information Sciences and Technology Group", "DATA_SECUR": 5, "DISTRIBUTI": "E4", "LOADDATE": "2011\/12\/20", "FTYPE": 730, "FCODE": 73004, "NAME": "SMITHSON VALLEY MIDDLE", "ISLANDMARK": 2, "POINTLOCAT": 1, "ADMINTYPE": 0, "ADDRESSBUI": null, "ADDRESS": "6101 FM 311", "CITY": "Spring Branch", "STATE": "TX", "ZIPCODE": "78070", "GNIS_ID": null, "FOOT_ID": null, "COMPLEX_ID": null, "FID_txdot_": 47, "CNTY_NM": "Comal", "CNTY_NBR": 46, "FIPS": 48091, "Shape_Leng": 1.94903665755 }, "geometry": { "type": "Point", "coordinates": [ -98.34828687543893, 29.821223295119012 ] } },
{ "type": "Feature", "properties": { "OBJECTID": 5145, "FID_Struct": 14719, "PERMANENT_": "{F0C7034D-BCF3-48FC-85F3-340151FA6177}", "SOURCE_FEA": "483897004452", "SOURCE_DAT": "{092B06A5-744D-461B-BB91-876E463350D0}", "SOURCE_D_1": "TNMC VWE DB Build - Vol Update Schools", "SOURCE_ORI": "Oak Ridge National Laboratory, Geographic Information Sciences and Technology Group", "DATA_SECUR": 5, "DISTRIBUTI": "E4", "LOADDATE": "2015\/10\/30", "FTYPE": 730, "FCODE": 73005, "NAME": "San Marcos High School", "ISLANDMARK": 2, "POINTLOCAT": 1, "ADMINTYPE": 0, "ADDRESSBUI": null, "ADDRESS": "2601 East McCarty Lane", "CITY": "San Marcos", "STATE": "TX", "ZIPCODE": "78666", "GNIS_ID": "2006635", "FOOT_ID": null, "COMPLEX_ID": null, "FID_txdot_": 59, "CNTY_NM": "Hays", "CNTY_NBR": 106, "FIPS": 48209, "Shape_Leng": 1.8032264710599999 }, "geometry": { "type": "Point", "coordinates": [ -97.949471985743514, 29.82322626518004 ] } },
{ "type": "Feature", "properties": { "OBJECTID": 5181, "FID_Struct": 2699, "PERMANENT_": "{E31DB30B-6E5C-43CE-A197-AC01A7B8C198}", "SOURCE_FEA": "480005309121", "SOURCE_DAT": "{092B06A5-744D-461B-BB91-876E463350D0}", "SOURCE_D_1": "TNMC VWE DB Build - Vol Update Schools", "SOURCE_ORI": "Oak Ridge National Laboratory, Geographic Information Sciences and Technology Group", "DATA_SECUR": 5, "DISTRIBUTI": "E4", "LOADDATE": "2015\/10\/30", "FTYPE": 730, "FCODE": 73002, "NAME": "John H Wood Jr Charter School Hays County Juvenile Detention Center", "ISLANDMARK": 2, "POINTLOCAT": 1, "ADMINTYPE": 0, "ADDRESSBUI": null, "ADDRESS": "2250 Clovis R Barker Road", "CITY": "San Marcos", "STATE": "TX", "ZIPCODE": "78666", "GNIS_ID": null, "FOOT_ID": null, "COMPLEX_ID": null, "FID_txdot_": 59, "CNTY_NM": "Hays", "CNTY_NBR": 106, "FIPS": 48209, "Shape_Leng": 1.8032264710599999 }, "geometry": { "type": "Point", "coordinates": [ -97.945835917893248, 29.832015048155995 ] } },
{ "type": "Feature", "properties": { "OBJECTID": 5184, "FID_Struct": 2700, "PERMANENT_": "{B5F33660-85A5-4860-902D-6FB3122B32ED}", "SOURCE_FEA": "480005309121", "SOURCE_DAT": "{CC44F99C-6658-4584-B606-926E498D5C82}", "SOURCE_D_1": "TNMC VWE DB Build - Vol Update", "SOURCE_ORI": "U.S. Geological Survey", "DATA_SECUR": 5, "DISTRIBUTI": "E4", "LOADDATE": "2016\/08\/12", "FTYPE": 740, "FCODE": 74036, "NAME": "HAYS CO JUVENILE CENTER", "ISLANDMARK": 0, "POINTLOCAT": 1, "ADMINTYPE": 0, "ADDRESSBUI": null, "ADDRESS": "2250 CLOVIS BARKER ROAD", "CITY": "SAN MARCOS", "STATE": "TX", "ZIPCODE": "78666", "GNIS_ID": null, "FOOT_ID": null, "COMPLEX_ID": null, "FID_txdot_": 59, "CNTY_NM": "Hays", "CNTY_NBR": 106, "FIPS": 48209, "Shape_Leng": 1.8032264710599999 }, "geometry": { "type": "Point", "coordinates": [ -97.945765200603489, 29.832332999868129 ] } },
{ "type": "Feature", "properties": { "OBJECTID": 5186, "FID_Struct": 2697, "PERMANENT_": "e397bb74-5f38-426a-8aaa-807d54455f64", "SOURCE_FEA": null, "SOURCE_DAT": "1aa9ea2e-7dc0-410b-a853-718bce09e28a", "SOURCE_D_1": "740 TNMC Update 12\/11\/2016", "SOURCE_ORI": "U.S. Geological Survey", "DATA_SECUR": 0, "DISTRIBUTI": "E4", "LOADDATE": "2016\/12\/11", "FTYPE": 740, "FCODE": 74026, "NAME": "South Hays Fire Department Station 11", "ISLANDMARK": 2, "POINTLOCAT": 1, "ADMINTYPE": 0, "ADDRESSBUI": null, "ADDRESS": "3528 Hunter Road", "CITY": "San Marcos", "STATE": "TX", "ZIPCODE": "78666-9349", "GNIS_ID": null, "FOOT_ID": null, "COMPLEX_ID": null, "FID_txdot_": 59, "CNTY_NM": "Hays", "CNTY_NBR": 106, "FIPS": 48209, "Shape_Leng": 1.8032264710599999 }, "geometry": { "type": "Point", "coordinates": [ -97.995094260391795, 29.833099966890018 ] } },
{ "type": "Feature", "properties": { "OBJECTID": 5221, "FID_Struct": 6604, "PERMANENT_": "{A549A754-2231-4A3D-96BE-D1E2A3E39880}", "SOURCE_FEA": "481473000972", "SOURCE_DAT": "{CC19ABE0-361F-4846-B852-AA57C04368C8}", "SOURCE_D_1": "NSD TNMC VWE Database Build - Reviewed Schools", "SOURCE_ORI": "Oak Ridge National Laboratory, Geographic Information Sciences and Technology Group", "DATA_SECUR": 5, "DISTRIBUTI": "E4", "LOADDATE": "2011\/12\/20", "FTYPE": 730, "FCODE": 73002, "NAME": "STARTZVILLE EL", "ISLANDMARK": 2, "POINTLOCAT": 1, "ADMINTYPE": 0, "ADDRESSBUI": null, "ADDRESS": "42111 FM 3159", "CITY": "Canyon Lake", "STATE": "TX", "ZIPCODE": "78133", "GNIS_ID": null, "FOOT_ID": null, "COMPLEX_ID": null, "FID_txdot_": 47, "CNTY_NM": "Comal", "CNTY_NBR": 46, "FIPS": 48091, "Shape_Leng": 1.94903665755 }, "geometry": { "type": "Point", "coordinates": [ -98.26897632429791, 29.841813390275775 ] } },
{ "type": "Feature", "properties": { "OBJECTID": 5237, "FID_Struct": 10727, "PERMANENT_": "d27a66d2-f94f-48d2-b840-5a52c854e530", "SOURCE_FEA": "10152685", "SOURCE_DAT": "{43CAF7AD-177F-413D-90DA-C94E9789FEC8}", "SOURCE_D_1": "NSD TNMC VWE Database Build - Reviewed features", "SOURCE_ORI": "U.S. Geological Survey", "DATA_SECUR": 5, "DISTRIBUTI": "E4", "LOADDATE": "2009\/12\/24", "FTYPE": 740, "FCODE": 74026, "NAME": "Canyon Lake Fire \/ Emergency Medical Service Station 5", "ISLANDMARK": 2, "POINTLOCAT": 1, "ADMINTYPE": 0, "ADDRESSBUI": null, "ADDRESS": "1754 Island View Drive", "CITY": "Canyon Lake", "STATE": "TX", "ZIPCODE": "78133", "GNIS_ID": "2552651", "FOOT_ID": null, "COMPLEX_ID": null, "FID_txdot_": 47, "CNTY_NM": "Comal", "CNTY_NBR": 46, "FIPS": 48091, "Shape_Leng": 1.94903665755 }, "geometry": { "type": "Point", "coordinates": [ -98.234180699979277, 29.846518100929643 ] } },
{ "type": "Feature", "properties": { "OBJECTID": 5238, "FID_Struct": 4664, "PERMANENT_": "8d3c588a-14d0-4fd2-8a09-37b93921a06f", "SOURCE_FEA": "10152679", "SOURCE_DAT": "{43CAF7AD-177F-413D-90DA-C94E9789FEC8}", "SOURCE_D_1": "NSD TNMC VWE Database Build - Reviewed features", "SOURCE_ORI": "U.S. Geological Survey", "DATA_SECUR": 5, "DISTRIBUTI": "E4", "LOADDATE": "2009\/12\/24", "FTYPE": 740, "FCODE": 74026, "NAME": "Canyon Lake Fire and Emergency Medical Service Station 4", "ISLANDMARK": 2, "POINTLOCAT": 4, "ADMINTYPE": 0, "ADDRESSBUI": null, "ADDRESS": "1741 Skyline Drive", "CITY": "Canyon Lake", "STATE": "TX", "ZIPCODE": "78133", "GNIS_ID": "2054799", "FOOT_ID": null, "COMPLEX_ID": null, "FID_txdot_": 47, "CNTY_NM": "Comal", "CNTY_NBR": 46, "FIPS": 48091, "Shape_Leng": 1.94903665755 }, "geometry": { "type": "Point", "coordinates": [ -98.191693699404652, 29.846973701075513 ] } },
{ "type": "Feature", "properties": { "OBJECTID": 5252, "FID_Struct": 8710, "PERMANENT_": "43091303-1963-48e5-9b68-eda1f0f02c18", "SOURCE_FEA": "10166181", "SOURCE_DAT": "{43CAF7AD-177F-413D-90DA-C94E9789FEC8}", "SOURCE_D_1": "NSD TNMC VWE Database Build - Reviewed features", "SOURCE_ORI": "U.S. Geological Survey", "DATA_SECUR": 5, "DISTRIBUTI": "E4", "LOADDATE": "2009\/12\/24", "FTYPE": 740, "FCODE": 74026, "NAME": "Canyon Lake Fire and Emergency Medical Service Headquarters", "ISLANDMARK": 2, "POINTLOCAT": 1, "ADMINTYPE": 0, "ADDRESSBUI": null, "ADDRESS": "1425 Sattler Road", "CITY": "Canyon Lake", "STATE": "TX", "ZIPCODE": "78132", "GNIS_ID": "2054800", "FOOT_ID": null, "COMPLEX_ID": null, "FID_txdot_": 47, "CNTY_NM": "Comal", "CNTY_NBR": 46, "FIPS": 48091, "Shape_Leng": 1.94903665755 }, "geometry": { "type": "Point", "coordinates": [ -98.171792448063002, 29.848697409158149 ] } },
{ "type": "Feature", "properties": { "OBJECTID": 5258, "FID_Struct": 12688, "PERMANENT_": "{88B0E745-98EC-4167-B6AC-C9D0F76A2D7A}", "SOURCE_FEA": "481473011948", "SOURCE_DAT": "{CC19ABE0-361F-4846-B852-AA57C04368C8}", "SOURCE_D_1": "NSD TNMC VWE Database Build - Reviewed Schools", "SOURCE_ORI": "Oak Ridge National Laboratory, Geographic Information Sciences and Technology Group", "DATA_SECUR": 5, "DISTRIBUTI": "E4", "LOADDATE": "2011\/12\/20", "FTYPE": 730, "FCODE": 73002, "NAME": "MT VALLEY MIDDLE", "ISLANDMARK": 2, "POINTLOCAT": 1, "ADMINTYPE": 0, "ADDRESSBUI": null, "ADDRESS": "1404 IH 35 N", "CITY": "New Braunfels", "STATE": "TX", "ZIPCODE": "78130", "GNIS_ID": null, "FOOT_ID": null, "COMPLEX_ID": null, "FID_txdot_": 47, "CNTY_NM": "Comal", "CNTY_NBR": 46, "FIPS": 48091, "Shape_Leng": 1.94903665755 }, "geometry": { "type": "Point", "coordinates": [ -98.16833153217442, 29.849728665345708 ] } },
{ "type": "Feature", "properties": { "OBJECTID": 5268, "FID_Struct": 12724, "PERMANENT_": "d73fbf5f-83ba-44ae-8ea3-85bdac81e9d5", "SOURCE_FEA": "10481556", "SOURCE_DAT": "8a085a8a-8d18-4d64-a451-18844a70036a", "SOURCE_D_1": "800 TNMC Update 12\/11\/2016", "SOURCE_ORI": "U.S. Geological Survey", "DATA_SECUR": 5, "DISTRIBUTI": "E4", "LOADDATE": "2016\/12\/11", "FTYPE": 800, "FCODE": 80012, "NAME": "Central Texas Medical Center", "ISLANDMARK": 0, "POINTLOCAT": 1, "ADMINTYPE": 0, "ADDRESSBUI": null, "ADDRESS": "1301 Wonder World Drive", "CITY": "San Marcos", "STATE": "TX", "ZIPCODE": "78666-7544", "GNIS_ID": "2015776", "FOOT_ID": null, "COMPLEX_ID": null, "FID_txdot_": 59, "CNTY_NM": "Hays", "CNTY_NBR": 106, "FIPS": 48209, "Shape_Leng": 1.8032264710599999 }, "geometry": { "type": "Point", "coordinates": [ -97.945793124553006, 29.852718948920426 ] } },
{ "type": "Feature", "properties": { "OBJECTID": 5275, "FID_Struct": 12723, "PERMANENT_": "{80645708-1C9E-49E9-BC71-AD10021C33B4}", "SOURCE_FEA": null, "SOURCE_DAT": "1aa9ea2e-7dc0-410b-a853-718bce09e28a", "SOURCE_D_1": "740 TNMC Update 12\/11\/2016", "SOURCE_ORI": "U.S. Geological Survey", "DATA_SECUR": 5, "DISTRIBUTI": "E4", "LOADDATE": "2016\/12\/11", "FTYPE": 740, "FCODE": 74034, "NAME": "San Marcos Police Department", "ISLANDMARK": 2, "POINTLOCAT": 1, "ADMINTYPE": 6, "ADDRESSBUI": null, "ADDRESS": "2300 South Interstate Highway 35", "CITY": "San Marcos", "STATE": "TX", "ZIPCODE": "78666-5962", "GNIS_ID": "2739266", "FOOT_ID": null, "COMPLEX_ID": null, "FID_txdot_": 59, "CNTY_NM": "Hays", "CNTY_NBR": 106, "FIPS": 48209, "Shape_Leng": 1.8032264710599999 }, "geometry": { "type": "Point", "coordinates": [ -97.95726773102092, 29.85466253764605 ] } },
{ "type": "Feature", "properties": { "OBJECTID": 5279, "FID_Struct": 4706, "PERMANENT_": "{C65A8597-84FE-4287-925E-ABEC8D2E6297}", "SOURCE_FEA": "483897006322", "SOURCE_DAT": "{092B06A5-744D-461B-BB91-876E463350D0}", "SOURCE_D_1": "TNMC VWE DB Build - Vol Update Schools", "SOURCE_ORI": "Oak Ridge National Laboratory, Geographic Information Sciences and Technology Group", "DATA_SECUR": 5, "DISTRIBUTI": "E4", "LOADDATE": "2015\/10\/30", "FTYPE": 730, "FCODE": 73003, "NAME": "Dezavala Elementary School", "ISLANDMARK": 2, "POINTLOCAT": 1, "ADMINTYPE": 0, "ADDRESSBUI": null, "ADDRESS": "621 De Zavala Drive", "CITY": "San Marcos", "STATE": "TX", "ZIPCODE": "78666", "GNIS_ID": null, "FOOT_ID": null, "COMPLEX_ID": null, "FID_txdot_": 59, "CNTY_NM": "Hays", "CNTY_NBR": 106, "FIPS": 48209, "Shape_Leng": 1.8032264710599999 }, "geometry": { "type": "Point", "coordinates": [ -97.935202001271307, 29.856053984004234 ] } },
{ "type": "Feature", "properties": { "OBJECTID": 5289, "FID_Struct": 14718, "PERMANENT_": "{C58F50F5-4092-4709-9A86-13DFE8C70F35}", "SOURCE_FEA": "483897007035", "SOURCE_DAT": "{092B06A5-744D-461B-BB91-876E463350D0}", "SOURCE_D_1": "TNMC VWE DB Build - Vol Update Schools", "SOURCE_ORI": "Oak Ridge National Laboratory, Geographic Information Sciences and Technology Group", "DATA_SECUR": 5, "DISTRIBUTI": "E4", "LOADDATE": "2016\/08\/12", "FTYPE": 730, "FCODE": 73004, "NAME": "Doris Miller Middle School", "ISLANDMARK": 2, "POINTLOCAT": 1, "ADMINTYPE": 0, "ADDRESSBUI": null, "ADDRESS": "301 FOXTAIL RUN", "CITY": "SAN MARCOS", "STATE": "TX", "ZIPCODE": "78666", "GNIS_ID": null, "FOOT_ID": null, "COMPLEX_ID": null, "FID_txdot_": 59, "CNTY_NM": "Hays", "CNTY_NBR": 106, "FIPS": 48209, "Shape_Leng": 1.8032264710599999 }, "geometry": { "type": "Point", "coordinates": [ -97.971605500093744, 29.857719599479992 ] } },
{ "type": "Feature", "properties": { "OBJECTID": 5294, "FID_Struct": 2701, "PERMANENT_": "{239429D4-4D36-465F-A564-95087B9A42F1}", "SOURCE_FEA": "483897004450", "SOURCE_DAT": "{092B06A5-744D-461B-BB91-876E463350D0}", "SOURCE_D_1": "TNMC VWE DB Build - Vol Update Schools", "SOURCE_ORI": "Oak Ridge National Laboratory, Geographic Information Sciences and Technology Group", "DATA_SECUR": 5, "DISTRIBUTI": "E4", "LOADDATE": "2016\/08\/12", "FTYPE": 730, "FCODE": 73004, "NAME": "OWEN GOODNIGHT MIDDLE SCHOOL", "ISLANDMARK": 2, "POINTLOCAT": 1, "ADMINTYPE": 0, "ADDRESSBUI": null, "ADDRESS": "1301 State Highway 123", "CITY": "SAN MARCOS", "STATE": "TX", "ZIPCODE": "78666", "GNIS_ID": null, "FOOT_ID": null, "COMPLEX_ID": null, "FID_txdot_": 59, "CNTY_NM": "Hays", "CNTY_NBR": 106, "FIPS": 48209, "Shape_Leng": 1.8032264710599999 }, "geometry": { "type": "Point", "coordinates": [ -97.937391500617196, 29.858854699484823 ] } },
{ "type": "Feature", "properties": { "OBJECTID": 5295, "FID_Struct": 4704, "PERMANENT_": "de1230ba-0993-4278-8d99-e4dacad54f7b", "SOURCE_FEA": null, "SOURCE_DAT": "1aa9ea2e-7dc0-410b-a853-718bce09e28a", "SOURCE_D_1": "740 TNMC Update 12\/11\/2016", "SOURCE_ORI": "U.S. Geological Survey", "DATA_SECUR": 0, "DISTRIBUTI": "E4", "LOADDATE": "2016\/12\/11", "FTYPE": 740, "FCODE": 74026, "NAME": "San Marcos Fire Department Station 3", "ISLANDMARK": 2, "POINTLOCAT": 1, "ADMINTYPE": 0, "ADDRESSBUI": null, "ADDRESS": "2420 Hunter Road", "CITY": "San Marcos", "STATE": "TX", "ZIPCODE": "78666-5107", "GNIS_ID": null, "FOOT_ID": null, "COMPLEX_ID": null, "FID_txdot_": 59, "CNTY_NM": "Hays", "CNTY_NBR": 106, "FIPS": 48209, "Shape_Leng": 1.8032264710599999 }, "geometry": { "type": "Point", "coordinates": [ -97.968315091168506, 29.859211563063241 ] } },
{ "type": "Feature", "properties": { "OBJECTID": 5298, "FID_Struct": 14720, "PERMANENT_": "3bf40681-7724-480e-9b63-57642d38a136", "SOURCE_FEA": null, "SOURCE_DAT": "1aa9ea2e-7dc0-410b-a853-718bce09e28a", "SOURCE_D_1": "740 TNMC Update 12\/11\/2016", "SOURCE_ORI": "U.S. Geological Survey", "DATA_SECUR": 0, "DISTRIBUTI": "E4", "LOADDATE": "2016\/12\/11", "FTYPE": 740, "FCODE": 74026, "NAME": "San Marcos Fire Department Station 4", "ISLANDMARK": 2, "POINTLOCAT": 1, "ADMINTYPE": 0, "ADDRESSBUI": null, "ADDRESS": "404 Broadway Street", "CITY": "San Marcos", "STATE": "TX", "ZIPCODE": "78666", "GNIS_ID": null, "FOOT_ID": null, "COMPLEX_ID": null, "FID_txdot_": 59, "CNTY_NM": "Hays", "CNTY_NBR": 106, "FIPS": 48209, "Shape_Leng": 1.8032264710599999 }, "geometry": { "type": "Point", "coordinates": [ -97.942611667594349, 29.860796568706746 ] } },
{ "type": "Feature", "properties": { "OBJECTID": 5313, "FID_Struct": 10728, "PERMANENT_": "{5308AA4E-A821-4363-9602-F105422820CF}", "SOURCE_FEA": "480025910529", "SOURCE_DAT": "{CC19ABE0-361F-4846-B852-AA57C04368C8}", "SOURCE_D_1": "NSD TNMC VWE Database Build - Reviewed Schools", "SOURCE_ORI": "Oak Ridge National Laboratory, Geographic Information Sciences and Technology Group", "DATA_SECUR": 5, "DISTRIBUTI": "E4", "LOADDATE": "2011\/12\/20", "FTYPE": 730, "FCODE": 73002, "NAME": "TRINITY CHARTER SCHOOL", "ISLANDMARK": 2, "POINTLOCAT": 1, "ADMINTYPE": 0, "ADDRESSBUI": null, "ADDRESS": "650 SCARBOROUGH RD", "CITY": "Canyon Lake", "STATE": "TX", "ZIPCODE": "78133", "GNIS_ID": null, "FOOT_ID": null, "COMPLEX_ID": null, "FID_txdot_": 47, "CNTY_NM": "Comal", "CNTY_NBR": 46, "FIPS": 48091, "Shape_Leng": 1.94903665755 }, "geometry": { "type": "Point", "coordinates": [ -98.180278081268398, 29.864598437368045 ] } },
{ "type": "Feature", "properties": { "OBJECTID": 5320, "FID_Struct": 2698, "PERMANENT_": "{D9350DFC-97FA-4F4B-89CA-8ACBDBFB886D}", "SOURCE_FEA": "483897004451", "SOURCE_DAT": "{092B06A5-744D-461B-BB91-876E463350D0}", "SOURCE_D_1": "TNMC VWE DB Build - Vol Update Schools", "SOURCE_ORI": "Oak Ridge National Laboratory, Geographic Information Sciences and Technology Group", "DATA_SECUR": 5, "DISTRIBUTI": "E4", "LOADDATE": "2016\/08\/12", "FTYPE": 730, "FCODE": 73003, "NAME": "HERNANDEZ ELEMENTARY", "ISLANDMARK": 2, "POINTLOCAT": 1, "ADMINTYPE": 0, "ADDRESSBUI": null, "ADDRESS": "333 STAGECOACH TRAIL", "CITY": "SAN MARCOS", "STATE": "TX", "ZIPCODE": "78666", "GNIS_ID": null, "FOOT_ID": null, "COMPLEX_ID": null, "FID_txdot_": 59, "CNTY_NM": "Hays", "CNTY_NBR": 106, "FIPS": 48209, "Shape_Leng": 1.8032264710599999 }, "geometry": { "type": "Point", "coordinates": [ -97.96834690018926, 29.865698600510029 ] } },
{ "type": "Feature", "properties": { "OBJECTID": 5332, "FID_Struct": 12649, "PERMANENT_": "66aa06de-5a30-4c37-9b1c-32e8f5ee08de", "SOURCE_FEA": "10152677", "SOURCE_DAT": "{43CAF7AD-177F-413D-90DA-C94E9789FEC8}", "SOURCE_D_1": "NSD TNMC VWE Database Build - Reviewed features", "SOURCE_ORI": "U.S. Geological Survey", "DATA_SECUR": 5, "DISTRIBUTI": "E4", "LOADDATE": "2009\/12\/24", "FTYPE": 740, "FCODE": 74026, "NAME": "Canyon Lake Fire \/ Emergency Medical Service Station 2", "ISLANDMARK": 2, "POINTLOCAT": 4, "ADMINTYPE": 0, "ADDRESSBUI": null, "ADDRESS": "160 Oblate Drive", "CITY": "Canyon Lake", "STATE": "TX", "ZIPCODE": "78133", "GNIS_ID": "2552656", "FOOT_ID": null, "COMPLEX_ID": null, "FID_txdot_": 47, "CNTY_NM": "Comal", "CNTY_NBR": 46, "FIPS": 48091, "Shape_Leng": 1.94903665755 }, "geometry": { "type": "Point", "coordinates": [ -98.288951999934795, 29.867133101011859 ] } },
{ "type": "Feature", "properties": { "OBJECTID": 5370, "FID_Struct": 8737, "PERMANENT_": "6400fa8f-e0af-4a96-8044-fbbf31e189fe", "SOURCE_FEA": "10410420", "SOURCE_DAT": "{CC44F99C-6658-4584-B606-926E498D5C82}", "SOURCE_D_1": "TNMC VWE DB Build - Vol Update", "SOURCE_ORI": "U.S. Geological Survey", "DATA_SECUR": 5, "DISTRIBUTI": "E4", "LOADDATE": "2016\/08\/12", "FTYPE": 740, "FCODE": 74026, "NAME": "South Hays Fire Department Company 1", "ISLANDMARK": 2, "POINTLOCAT": 4, "ADMINTYPE": 0, "ADDRESSBUI": null, "ADDRESS": "1401 West San Antonio Street", "CITY": "San Marcos", "STATE": "TX", "ZIPCODE": "78666", "GNIS_ID": "2031199", "FOOT_ID": null, "COMPLEX_ID": null, "FID_txdot_": 59, "CNTY_NM": "Hays", "CNTY_NBR": 106, "FIPS": 48209, "Shape_Leng": 1.8032264710599999 }, "geometry": { "type": "Point", "coordinates": [ -97.95480990005683, 29.872096801126531 ] } },
{ "type": "Feature", "properties": { "OBJECTID": 5373, "FID_Struct": 8492, "PERMANENT_": "{041C14CB-8511-477E-A5D6-7F997615850C}", "SOURCE_FEA": "A0109508", "SOURCE_DAT": "{CC19ABE0-361F-4846-B852-AA57C04368C8}", "SOURCE_D_1": "NSD TNMC VWE Database Build - Reviewed Schools", "SOURCE_ORI": "Oak Ridge National Laboratory, Geographic Information Sciences and Technology Group", "DATA_SECUR": 5, "DISTRIBUTI": "E4", "LOADDATE": "2011\/12\/20", "FTYPE": 730, "FCODE": 73002, "NAME": "VANGUARD CHRISTIAN INSTITUTE", "ISLANDMARK": 2, "POINTLOCAT": 1, "ADMINTYPE": 0, "ADDRESSBUI": null, "ADDRESS": null, "CITY": null, "STATE": "TX", "ZIPCODE": "-", "GNIS_ID": null, "FOOT_ID": null, "COMPLEX_ID": null, "FID_txdot_": 50, "CNTY_NM": "Kendall", "CNTY_NBR": 131, "FIPS": 48259, "Shape_Leng": 1.6063432560699999 }, "geometry": { "type": "Point", "coordinates": [ -98.791228163249116, 29.872743172659341 ] } },
{ "type": "Feature", "properties": { "OBJECTID": 5380, "FID_Struct": 575, "PERMANENT_": "1bd370b9-4582-43a3-8227-6e8cdd2b898d", "SOURCE_FEA": "10152675", "SOURCE_DAT": "{43CAF7AD-177F-413D-90DA-C94E9789FEC8}", "SOURCE_D_1": "NSD TNMC VWE Database Build - Reviewed features", "SOURCE_ORI": "U.S. Geological Survey", "DATA_SECUR": 5, "DISTRIBUTI": "E4", "LOADDATE": "2009\/12\/24", "FTYPE": 740, "FCODE": 74026, "NAME": "Canyon Lake Fire \/ Emergency Medical Service Station 1", "ISLANDMARK": 2, "POINTLOCAT": 1, "ADMINTYPE": 0, "ADDRESSBUI": null, "ADDRESS": "160 Dove Street", "CITY": "Canyon Lake", "STATE": "TX", "ZIPCODE": "78133", "GNIS_ID": "2552544", "FOOT_ID": null, "COMPLEX_ID": null, "FID_txdot_": 47, "CNTY_NM": "Comal", "CNTY_NBR": 46, "FIPS": 48091, "Shape_Leng": 1.94903665755 }, "geometry": { "type": "Point", "coordinates": [ -98.191835199634738, 29.874691901010465 ] } },
{ "type": "Feature", "properties": { "OBJECTID": 5385, "FID_Struct": 10668, "PERMANENT_": "e0a754ab-1c7a-4c93-9473-ba91f5c8a5da", "SOURCE_FEA": "10407807", "SOURCE_DAT": "{43CAF7AD-177F-413D-90DA-C94E9789FEC8}", "SOURCE_D_1": "NSD TNMC VWE Database Build - Reviewed features", "SOURCE_ORI": "U.S. Geological Survey", "DATA_SECUR": 5, "DISTRIBUTI": "E4", "LOADDATE": "2009\/12\/24", "FTYPE": 740, "FCODE": 74026, "NAME": "Spring Branch Volunteer Fire Department Central Station", "ISLANDMARK": 2, "POINTLOCAT": 1, "ADMINTYPE": 0, "ADDRESSBUI": null, "ADDRESS": "9850 Farm To Market Road 311", "CITY": "Spring Branch", "STATE": "TX", "ZIPCODE": "78070", "GNIS_ID": "2552191", "FOOT_ID": null, "COMPLEX_ID": null, "FID_txdot_": 47, "CNTY_NM": "Comal", "CNTY_NBR": 46, "FIPS": 48091, "Shape_Leng": 1.94903665755 }, "geometry": { "type": "Point", "coordinates": [ -98.407586589249661, 29.875877860374999 ] } },
{ "type": "Feature", "properties": { "OBJECTID": 5410, "FID_Struct": 614, "PERMANENT_": "0da1885c-7a62-4861-8a7d-f0c5cd82ff36", "SOURCE_FEA": null, "SOURCE_DAT": "1aa9ea2e-7dc0-410b-a853-718bce09e28a", "SOURCE_D_1": "740 TNMC Update 12\/11\/2016", "SOURCE_ORI": "U.S. Geological Survey", "DATA_SECUR": 0, "DISTRIBUTI": "E4", "LOADDATE": "2016\/12\/11", "FTYPE": 740, "FCODE": 74026, "NAME": "San Marcos Fire Department Station 1", "ISLANDMARK": 2, "POINTLOCAT": 1, "ADMINTYPE": 0, "ADDRESSBUI": null, "ADDRESS": "114 East Hutchison Street", "CITY": "San Marcos", "STATE": "TX", "ZIPCODE": "78666-5628", "GNIS_ID": null, "FOOT_ID": null, "COMPLEX_ID": null, "FID_txdot_": 59, "CNTY_NM": "Hays", "CNTY_NBR": 106, "FIPS": 48209, "Shape_Leng": 1.8032264710599999 }, "geometry": { "type": "Point", "coordinates": [ -97.941169710813483, 29.884033792225807 ] } },
{ "type": "Feature", "properties": { "OBJECTID": 5413, "FID_Struct": 613, "PERMANENT_": "{8E9290CA-4BB3-4A3D-9624-C12E5536084A}", "SOURCE_FEA": "483897004449", "SOURCE_DAT": "{092B06A5-744D-461B-BB91-876E463350D0}", "SOURCE_D_1": "TNMC VWE DB Build - Vol Update Schools", "SOURCE_ORI": "Oak Ridge National Laboratory, Geographic Information Sciences and Technology Group", "DATA_SECUR": 5, "DISTRIBUTI": "E4", "LOADDATE": "2016\/08\/12", "FTYPE": 730, "FCODE": 73003, "NAME": "CROCKETT ELEMENTARY", "ISLANDMARK": 2, "POINTLOCAT": 1, "ADMINTYPE": 0, "ADDRESSBUI": null, "ADDRESS": "1300 Girard Street", "CITY": "SAN MARCOS", "STATE": "TX", "ZIPCODE": "78666", "GNIS_ID": null, "FOOT_ID": null, "COMPLEX_ID": null, "FID_txdot_": 59, "CNTY_NM": "Hays", "CNTY_NBR": 106, "FIPS": 48209, "Shape_Leng": 1.8032264710599999 }, "geometry": { "type": "Point", "coordinates": [ -97.961233000202753, 29.885338600596015 ] } },
{ "type": "Feature", "properties": { "OBJECTID": 5419, "FID_Struct": 12725, "PERMANENT_": "{316FA186-D92E-4DA6-B8D7-FFCBC0C976EE}", "SOURCE_FEA": null, "SOURCE_DAT": "{CC44F99C-6658-4584-B606-926E498D5C82}", "SOURCE_D_1": "TNMC VWE DB Build - Vol Update", "SOURCE_ORI": "U.S. Geological Survey", "DATA_SECUR": 5, "DISTRIBUTI": "E4", "LOADDATE": "2016\/08\/12", "FTYPE": 740, "FCODE": 74034, "NAME": "Texas State University Police Department", "ISLANDMARK": 2, "POINTLOCAT": 1, "ADMINTYPE": 6, "ADDRESSBUI": "Nueces Building", "ADDRESS": "615 North L B J Drive", "CITY": "San Marcos", "STATE": "TX", "ZIPCODE": "78666", "GNIS_ID": "2739345", "FOOT_ID": null, "COMPLEX_ID": null, "FID_txdot_": 59, "CNTY_NM": "Hays", "CNTY_NBR": 106, "FIPS": 48209, "Shape_Leng": 1.8032264710599999 }, "geometry": { "type": "Point", "coordinates": [ -97.94123200055634, 29.888163000622058 ] } },
{ "type": "Feature", "properties": { "OBJECTID": 5420, "FID_Struct": 4742, "PERMANENT_": "{17506C22-F9B9-4B15-A23C-B134724BA196}", "SOURCE_FEA": "A9504038", "SOURCE_DAT": "{092B06A5-744D-461B-BB91-876E463350D0}", "SOURCE_D_1": "TNMC VWE DB Build - Vol Update Schools", "SOURCE_ORI": "Oak Ridge National Laboratory, Geographic Information Sciences and Technology Group", "DATA_SECUR": 5, "DISTRIBUTI": "E4", "LOADDATE": "2016\/08\/12", "FTYPE": 730, "FCODE": 73002, "NAME": "HILL COUNTRY CHRISTIAN SCHOOL OF SAN MARCOS", "ISLANDMARK": 2, "POINTLOCAT": 1, "ADMINTYPE": 0, "ADDRESSBUI": null, "ADDRESS": "1401 Davis Ln", "CITY": "San Marcos", "STATE": "TX", "ZIPCODE": "78666", "GNIS_ID": null, "FOOT_ID": null, "COMPLEX_ID": null, "FID_txdot_": 59, "CNTY_NM": "Hays", "CNTY_NBR": 106, "FIPS": 48209, "Shape_Leng": 1.8032264710599999 }, "geometry": { "type": "Point", "coordinates": [ -97.907900700057212, 29.888193300580383 ] } },
{ "type": "Feature", "properties": { "OBJECTID": 5423, "FID_Struct": 615, "PERMANENT_": "{F5D96BE1-B082-4DD9-8C98-40EF726AC6C0}", "SOURCE_FEA": "228459", "SOURCE_DAT": "{092B06A5-744D-461B-BB91-876E463350D0}", "SOURCE_D_1": "TNMC VWE DB Build - Vol Update Schools", "SOURCE_ORI": "Oak Ridge National Laboratory, Geographic Information Sciences and Technology Group", "DATA_SECUR": 5, "DISTRIBUTI": "E4", "LOADDATE": "2014\/06\/25", "FTYPE": 730, "FCODE": 73006, "NAME": "Texas State University San Marcos", "ISLANDMARK": 2, "POINTLOCAT": 1, "ADMINTYPE": 0, "ADDRESSBUI": null, "ADDRESS": "601 University Drive", "CITY": "San Marcos", "STATE": "TX", "ZIPCODE": "78666", "GNIS_ID": null, "FOOT_ID": null, "COMPLEX_ID": null, "FID_txdot_": 59, "CNTY_NM": "Hays", "CNTY_NBR": 106, "FIPS": 48209, "Shape_Leng": 1.8032264710599999 }, "geometry": { "type": "Point", "coordinates": [ -97.93639200039047, 29.889202168145573 ] } },
{ "type": "Feature", "properties": { "OBJECTID": 5431, "FID_Struct": 10770, "PERMANENT_": "9bb6ba1b-9be5-4cda-a6f3-cdfd379bb8ae", "SOURCE_FEA": null, "SOURCE_DAT": "1aa9ea2e-7dc0-410b-a853-718bce09e28a", "SOURCE_D_1": "740 TNMC Update 12\/11\/2016", "SOURCE_ORI": "U.S. Geological Survey", "DATA_SECUR": 0, "DISTRIBUTI": "E4", "LOADDATE": "2016\/12\/11", "FTYPE": 740, "FCODE": 74026, "NAME": "San Marcos Fire Department Station 2", "ISLANDMARK": 2, "POINTLOCAT": 1, "ADMINTYPE": 0, "ADDRESSBUI": null, "ADDRESS": "1314 Academy Street", "CITY": "San Marcos", "STATE": "TX", "ZIPCODE": "78666-3312", "GNIS_ID": null, "FOOT_ID": null, "COMPLEX_ID": null, "FID_txdot_": 59, "CNTY_NM": "Hays", "CNTY_NBR": 106, "FIPS": 48209, "Shape_Leng": 1.8032264710599999 }, "geometry": { "type": "Point", "coordinates": [ -97.95319363397897, 29.891913048548417 ] } },
{ "type": "Feature", "properties": { "OBJECTID": 5443, "FID_Struct": 4705, "PERMANENT_": "{700D900F-49E3-4F18-AC56-5A34B91BE9B3}", "SOURCE_FEA": "01329703", "SOURCE_DAT": "{092B06A5-744D-461B-BB91-876E463350D0}", "SOURCE_D_1": "TNMC VWE DB Build - Vol Update Schools", "SOURCE_ORI": "Oak Ridge National Laboratory, Geographic Information Sciences and Technology Group", "DATA_SECUR": 5, "DISTRIBUTI": "E4", "LOADDATE": "2016\/08\/12", "FTYPE": 730, "FCODE": 73004, "NAME": "SAN MARCOS ADVENTIST JUNIOR ACADEMY", "ISLANDMARK": 2, "POINTLOCAT": 1, "ADMINTYPE": 0, "ADDRESSBUI": null, "ADDRESS": "1523 OLD RANCH RD 12", "CITY": "SAN MARCOS", "STATE": "TX", "ZIPCODE": "78666", "GNIS_ID": null, "FOOT_ID": null, "COMPLEX_ID": null, "FID_txdot_": 59, "CNTY_NM": "Hays", "CNTY_NBR": 106, "FIPS": 48209, "Shape_Leng": 1.8032264710599999 }, "geometry": { "type": "Point", "coordinates": [ -97.960023600009094, 29.89386160063242 ] } },
{ "type": "Feature", "properties": { "OBJECTID": 5452, "FID_Struct": 651, "PERMANENT_": "{4C565B17-0940-4912-907A-1FCDD4A2FCB6}", "SOURCE_FEA": null, "SOURCE_DAT": "{CC44F99C-6658-4584-B606-926E498D5C82}", "SOURCE_D_1": "TNMC VWE DB Build - Vol Update", "SOURCE_ORI": "U.S. Geological Survey", "DATA_SECUR": 5, "DISTRIBUTI": "E4", "LOADDATE": "2016\/08\/12", "FTYPE": 740, "FCODE": 74034, "NAME": "Hays County Law Enforcement Center Sheriff's Office", "ISLANDMARK": 2, "POINTLOCAT": 1, "ADMINTYPE": 5, "ADDRESSBUI": null, "ADDRESS": "1307 Uhland Road", "CITY": "San Marcos", "STATE": "TX", "ZIPCODE": "78666", "GNIS_ID": "2739269", "FOOT_ID": null, "COMPLEX_ID": null, "FID_txdot_": 59, "CNTY_NM": "Hays", "CNTY_NBR": 106, "FIPS": 48209, "Shape_Leng": 1.8032264710599999 }, "geometry": { "type": "Point", "coordinates": [ -97.904065062752409, 29.89620372662074 ] } },
{ "type": "Feature", "properties": { "OBJECTID": 5453, "FID_Struct": 2702, "PERMANENT_": "{96B50D48-10DA-4FEC-B34A-13B4B6C03C05}", "SOURCE_FEA": "483897004453", "SOURCE_DAT": "{092B06A5-744D-461B-BB91-876E463350D0}", "SOURCE_D_1": "TNMC VWE DB Build - Vol Update Schools", "SOURCE_ORI": "Oak Ridge National Laboratory, Geographic Information Sciences and Technology Group", "DATA_SECUR": 5, "DISTRIBUTI": "E4", "LOADDATE": "2016\/08\/12", "FTYPE": 730, "FCODE": 73003, "NAME": "TRAVIS ELEMENTARY", "ISLANDMARK": 2, "POINTLOCAT": 1, "ADMINTYPE": 0, "ADDRESSBUI": null, "ADDRESS": "1437 POST RD", "CITY": "SAN MARCOS", "STATE": "TX", "ZIPCODE": "78666", "GNIS_ID": null, "FOOT_ID": null, "COMPLEX_ID": null, "FID_txdot_": 59, "CNTY_NM": "Hays", "CNTY_NBR": 106, "FIPS": 48209, "Shape_Leng": 1.8032264710599999 }, "geometry": { "type": "Point", "coordinates": [ -97.923880499885115, 29.896385100991665 ] } },
{ "type": "Feature", "properties": { "OBJECTID": 5454, "FID_Struct": 6703, "PERMANENT_": "{F163C7C1-20E3-4DCC-8625-B080C3ED0C48}", "SOURCE_FEA": "480019408645", "SOURCE_DAT": "{092B06A5-744D-461B-BB91-876E463350D0}", "SOURCE_D_1": "TNMC VWE DB Build - Vol Update Schools", "SOURCE_ORI": "Oak Ridge National Laboratory, Geographic Information Sciences and Technology Group", "DATA_SECUR": 5, "DISTRIBUTI": "E4", "LOADDATE": "2016\/08\/12", "FTYPE": 730, "FCODE": 73002, "NAME": "TEXAS PREPARATORY SCHOOL", "ISLANDMARK": 2, "POINTLOCAT": 1, "ADMINTYPE": 0, "ADDRESSBUI": null, "ADDRESS": "400 UHLAND RD", "CITY": "SAN MARCOS", "STATE": "TX", "ZIPCODE": "78666", "GNIS_ID": null, "FOOT_ID": null, "COMPLEX_ID": null, "FID_txdot_": 59, "CNTY_NM": "Hays", "CNTY_NBR": 106, "FIPS": 48209, "Shape_Leng": 1.8032264710599999 }, "geometry": { "type": "Point", "coordinates": [ -97.916571800448196, 29.89640110083019 ] } },
{ "type": "Feature", "properties": { "OBJECTID": 5459, "FID_Struct": 10771, "PERMANENT_": "{7298BE32-F87B-4957-8035-06FAA75048FC}", "SOURCE_FEA": null, "SOURCE_DAT": "{092B06A5-744D-461B-BB91-876E463350D0}", "SOURCE_D_1": "TNMC VWE DB Build - Vol Update Schools", "SOURCE_ORI": "Oak Ridge National Laboratory, Geographic Information Sciences and Technology Group", "DATA_SECUR": 5, "DISTRIBUTI": "E4", "LOADDATE": "2016\/07\/27", "FTYPE": 730, "FCODE": 73002, "NAME": "SAN MARCOS TREATMENT CENTER", "ISLANDMARK": 0, "POINTLOCAT": 1, "ADMINTYPE": 0, "ADDRESSBUI": null, "ADDRESS": "120 BERT BROWN RD", "CITY": "San Marcos", "STATE": "TX", "ZIPCODE": "78666", "GNIS_ID": null, "FOOT_ID": null, "COMPLEX_ID": null, "FID_txdot_": 59, "CNTY_NM": "Hays", "CNTY_NBR": 106, "FIPS": 48209, "Shape_Leng": 1.8032264710599999 }, "geometry": { "type": "Point", "coordinates": [ -97.927988000445851, 29.897489600664585 ] } },
{ "type": "Feature", "properties": { "OBJECTID": 5463, "FID_Struct": 14721, "PERMANENT_": "{01368160-F081-49A3-BCBF-91D174397E97}", "SOURCE_FEA": "480007111054", "SOURCE_DAT": "{CC44F99C-6658-4584-B606-926E498D5C82}", "SOURCE_D_1": "TNMC VWE DB Build - Vol Update", "SOURCE_ORI": "U.S. Geological Survey", "DATA_SECUR": 5, "DISTRIBUTI": "E4", "LOADDATE": "2016\/08\/12", "FTYPE": 740, "FCODE": 74036, "NAME": "SAN MARCOS TREATMENT CENTER", "ISLANDMARK": 2, "POINTLOCAT": 1, "ADMINTYPE": 0, "ADDRESSBUI": null, "ADDRESS": "120 BERT BROWN RD", "CITY": "SAN MARCOS", "STATE": "TX", "ZIPCODE": "78666", "GNIS_ID": null, "FOOT_ID": null, "COMPLEX_ID": null, "FID_txdot_": 59, "CNTY_NM": "Hays", "CNTY_NBR": 106, "FIPS": 48209, "Shape_Leng": 1.8032264710599999 }, "geometry": { "type": "Point", "coordinates": [ -97.927172100412065, 29.898661500927574 ] } },
{ "type": "Feature", "properties": { "OBJECTID": 5465, "FID_Struct": 8735, "PERMANENT_": "{1DDB50FC-2E6A-464D-A1DF-E0A0E21F9160}", "SOURCE_FEA": "01328302", "SOURCE_DAT": "{092B06A5-744D-461B-BB91-876E463350D0}", "SOURCE_D_1": "TNMC VWE DB Build - Vol Update Schools", "SOURCE_ORI": "Oak Ridge National Laboratory, Geographic Information Sciences and Technology Group", "DATA_SECUR": 5, "DISTRIBUTI": "E4", "LOADDATE": "2016\/08\/12", "FTYPE": 730, "FCODE": 73002, "NAME": "SAN MARCOS ACADEMY", "ISLANDMARK": 2, "POINTLOCAT": 1, "ADMINTYPE": 0, "ADDRESSBUI": null, "ADDRESS": "2801 Branch Rd 12", "CITY": "San Marcos", "STATE": "TX", "ZIPCODE": "78666", "GNIS_ID": null, "FOOT_ID": null, "COMPLEX_ID": null, "FID_txdot_": 59, "CNTY_NM": "Hays", "CNTY_NBR": 106, "FIPS": 48209, "Shape_Leng": 1.8032264710599999 }, "geometry": { "type": "Point", "coordinates": [ -98.00293999988105, 29.898922001249389 ] } },
{ "type": "Feature", "properties": { "OBJECTID": 5466, "FID_Struct": 10769, "PERMANENT_": "{22A02D85-BE36-4A6C-9F67-AE0A2564A721}", "SOURCE_FEA": "A9504180", "SOURCE_DAT": "{CC19ABE0-361F-4846-B852-AA57C04368C8}", "SOURCE_D_1": "NSD TNMC VWE Database Build - Reviewed Schools", "SOURCE_ORI": "Oak Ridge National Laboratory, Geographic Information Sciences and Technology Group", "DATA_SECUR": 5, "DISTRIBUTI": "E4", "LOADDATE": "2011\/12\/20", "FTYPE": 730, "FCODE": 73003, "NAME": "THE MASTER S SCHOOL", "ISLANDMARK": 2, "POINTLOCAT": 1, "ADMINTYPE": 0, "ADDRESSBUI": null, "ADDRESS": "2801 RANCH RD 12", "CITY": "San Marcos", "STATE": "TX", "ZIPCODE": "78666", "GNIS_ID": null, "FOOT_ID": null, "COMPLEX_ID": null, "FID_txdot_": 59, "CNTY_NM": "Hays", "CNTY_NBR": 106, "FIPS": 48209, "Shape_Leng": 1.8032264710599999 }, "geometry": { "type": "Point", "coordinates": [ -98.00293999988105, 29.898922001249389 ] } },
{ "type": "Feature", "properties": { "OBJECTID": 5475, "FID_Struct": 4703, "PERMANENT_": "{765A3D1C-7A0F-49B8-9A95-1AAE8DCAFBC1}", "SOURCE_FEA": "01328856", "SOURCE_DAT": "{092B06A5-744D-461B-BB91-876E463350D0}", "SOURCE_D_1": "TNMC VWE DB Build - Vol Update Schools", "SOURCE_ORI": "Oak Ridge National Laboratory, Geographic Information Sciences and Technology Group", "DATA_SECUR": 5, "DISTRIBUTI": "E4", "LOADDATE": "2016\/08\/12", "FTYPE": 730, "FCODE": 73002, "NAME": "WONDERLAND SCHOOL", "ISLANDMARK": 2, "POINTLOCAT": 1, "ADMINTYPE": 0, "ADDRESSBUI": null, "ADDRESS": "302 Country Estates Dr", "CITY": "San Marcos", "STATE": "TX", "ZIPCODE": "78666", "GNIS_ID": null, "FOOT_ID": null, "COMPLEX_ID": null, "FID_txdot_": 59, "CNTY_NM": "Hays", "CNTY_NBR": 106, "FIPS": 48209, "Shape_Leng": 1.8032264710599999 }, "geometry": { "type": "Point", "coordinates": [ -97.974382200078423, 29.901500300898192 ] } },
{ "type": "Feature", "properties": { "OBJECTID": 5495, "FID_Struct": 12759, "PERMANENT_": "1924bf10-72c3-409a-a04d-2a0b26f2336c", "SOURCE_FEA": null, "SOURCE_DAT": "1aa9ea2e-7dc0-410b-a853-718bce09e28a", "SOURCE_D_1": "740 TNMC Update 12\/11\/2016", "SOURCE_ORI": "U.S. Geological Survey", "DATA_SECUR": 0, "DISTRIBUTI": "E4", "LOADDATE": "2016\/12\/11", "FTYPE": 740, "FCODE": 74026, "NAME": "San Marcos Fire Department Station 5", "ISLANDMARK": 2, "POINTLOCAT": 1, "ADMINTYPE": 0, "ADDRESSBUI": null, "ADDRESS": "100 Carlson Circle", "CITY": "San Marcos", "STATE": "TX", "ZIPCODE": "78666-7064", "GNIS_ID": null, "FOOT_ID": null, "COMPLEX_ID": null, "FID_txdot_": 59, "CNTY_NM": "Hays", "CNTY_NBR": 106, "FIPS": 48209, "Shape_Leng": 1.8032264710599999 }, "geometry": { "type": "Point", "coordinates": [ -97.904540996569722, 29.905771839598742 ] } },
{ "type": "Feature", "properties": { "OBJECTID": 5600, "FID_Struct": 10768, "PERMANENT_": "fba5ad72-4cd8-451e-b1a5-03f9963e8554", "SOURCE_FEA": "10410423", "SOURCE_DAT": "1aa9ea2e-7dc0-410b-a853-718bce09e28a", "SOURCE_D_1": "740 TNMC Update 12\/11\/2016", "SOURCE_ORI": "U.S. Geological Survey", "DATA_SECUR": 5, "DISTRIBUTI": "E4", "LOADDATE": "2016\/12\/11", "FTYPE": 740, "FCODE": 74026, "NAME": "South Hays Fire Department Station 12", "ISLANDMARK": 2, "POINTLOCAT": 4, "ADMINTYPE": 0, "ADDRESSBUI": null, "ADDRESS": "8301 Ranch Road 12", "CITY": "San Marcos", "STATE": "TX", "ZIPCODE": "78666-1979", "GNIS_ID": "2552492", "FOOT_ID": null, "COMPLEX_ID": null, "FID_txdot_": 59, "CNTY_NM": "Hays", "CNTY_NBR": 106, "FIPS": 48209, "Shape_Leng": 1.8032264710599999 }, "geometry": { "type": "Point", "coordinates": [ -98.079467709567098, 29.934765446368317 ] } },
{ "type": "Feature", "properties": { "OBJECTID": 5606, "FID_Struct": 8656, "PERMANENT_": "{2785E8FA-A7C0-486D-9A07-F82EB2867701}", "SOURCE_FEA": "481473009180", "SOURCE_DAT": "{CC19ABE0-361F-4846-B852-AA57C04368C8}", "SOURCE_D_1": "NSD TNMC VWE Database Build - Reviewed Schools", "SOURCE_ORI": "Oak Ridge National Laboratory, Geographic Information Sciences and Technology Group", "DATA_SECUR": 5, "DISTRIBUTI": "E4", "LOADDATE": "2011\/12\/20", "FTYPE": 730, "FCODE": 73003, "NAME": "REBECCA CREEK ELEMENTARY SCHOOL", "ISLANDMARK": 2, "POINTLOCAT": 1, "ADMINTYPE": 0, "ADDRESSBUI": null, "ADDRESS": "125 QUEST AVE", "CITY": "Spring Branch", "STATE": "TX", "ZIPCODE": "78070", "GNIS_ID": null, "FOOT_ID": null, "COMPLEX_ID": null, "FID_txdot_": 47, "CNTY_NM": "Comal", "CNTY_NBR": 46, "FIPS": 48091, "Shape_Leng": 1.94903665755 }, "geometry": { "type": "Point", "coordinates": [ -98.29863539790523, 29.935562285271317 ] } },
{ "type": "Feature", "properties": { "OBJECTID": 5612, "FID_Struct": 6605, "PERMANENT_": "b3ecb3e7-dd8c-4c09-b147-b9f8802425b9", "SOURCE_FEA": "10152843", "SOURCE_DAT": "{43CAF7AD-177F-413D-90DA-C94E9789FEC8}", "SOURCE_D_1": "NSD TNMC VWE Database Build - Reviewed features", "SOURCE_ORI": "U.S. Geological Survey", "DATA_SECUR": 5, "DISTRIBUTI": "E4", "LOADDATE": "2009\/12\/24", "FTYPE": 740, "FCODE": 74026, "NAME": "Canyon Lake Fire \/ Emergency Medical Service Station 3", "ISLANDMARK": 2, "POINTLOCAT": 1, "ADMINTYPE": 0, "ADDRESSBUI": null, "ADDRESS": "21760 Farm To Market Road 306", "CITY": "Canyon Lake", "STATE": "TX", "ZIPCODE": "78133", "GNIS_ID": "2552653", "FOOT_ID": null, "COMPLEX_ID": null, "FID_txdot_": 47, "CNTY_NM": "Comal", "CNTY_NBR": 46, "FIPS": 48091, "Shape_Leng": 1.94903665755 }, "geometry": { "type": "Point", "coordinates": [ -98.257042800085117, 29.937543000708956 ] } },
{ "type": "Feature", "properties": { "OBJECTID": 5632, "FID_Struct": 4611, "PERMANENT_": "7a157cbb-fe52-43df-8f82-59fb170034d5", "SOURCE_FEA": "10407811", "SOURCE_DAT": "{43CAF7AD-177F-413D-90DA-C94E9789FEC8}", "SOURCE_D_1": "NSD TNMC VWE Database Build - Reviewed features", "SOURCE_ORI": "U.S. Geological Survey", "DATA_SECUR": 5, "DISTRIBUTI": "E4", "LOADDATE": "2009\/12\/24", "FTYPE": 740, "FCODE": 74026, "NAME": "Spring Branch Volunteer Fire Department Station 2", "ISLANDMARK": 2, "POINTLOCAT": 1, "ADMINTYPE": 0, "ADDRESSBUI": null, "ADDRESS": "180 Tanglewood Trail Court", "CITY": "Spring Branch", "STATE": "TX", "ZIPCODE": "78070", "GNIS_ID": "2552163", "FOOT_ID": null, "COMPLEX_ID": null, "FID_txdot_": 47, "CNTY_NM": "Comal", "CNTY_NBR": 46, "FIPS": 48091, "Shape_Leng": 1.94903665755 }, "geometry": { "type": "Point", "coordinates": [ -98.346872657347205, 29.942291654036637 ] } },
{ "type": "Feature", "properties": { "OBJECTID": 5635, "FID_Struct": 653, "PERMANENT_": "{6ACC7C5A-603D-4323-A7FD-C066E2BACD38}", "SOURCE_FEA": "480001008840", "SOURCE_DAT": "{092B06A5-744D-461B-BB91-876E463350D0}", "SOURCE_D_1": "TNMC VWE DB Build - Vol Update Schools", "SOURCE_ORI": "Oak Ridge National Laboratory, Geographic Information Sciences and Technology Group", "DATA_SECUR": 5, "DISTRIBUTI": "E4", "LOADDATE": "2016\/08\/12", "FTYPE": 730, "FCODE": 73003, "NAME": "Hemphill Elementary School", "ISLANDMARK": 2, "POINTLOCAT": 1, "ADMINTYPE": 0, "ADDRESSBUI": null, "ADDRESS": "3995 East Farm to Marker Road 150", "CITY": "Kyle", "STATE": "TX", "ZIPCODE": "78640", "GNIS_ID": null, "FOOT_ID": null, "COMPLEX_ID": null, "FID_txdot_": 59, "CNTY_NM": "Hays", "CNTY_NBR": 106, "FIPS": 48209, "Shape_Leng": 1.8032264710599999 }, "geometry": { "type": "Point", "coordinates": [ -97.827114800307754, 29.943592600717977 ] } },
{ "type": "Feature", "properties": { "OBJECTID": 5637, "FID_Struct": 14681, "PERMANENT_": "{3A8049AF-4CF1-43FC-B918-B85B671EDBFF}", "SOURCE_FEA": "481473010533", "SOURCE_DAT": "{CC19ABE0-361F-4846-B852-AA57C04368C8}", "SOURCE_D_1": "NSD TNMC VWE Database Build - Reviewed Schools", "SOURCE_ORI": "Oak Ridge National Laboratory, Geographic Information Sciences and Technology Group", "DATA_SECUR": 5, "DISTRIBUTI": "E4", "LOADDATE": "2011\/12\/20", "FTYPE": 730, "FCODE": 73002, "NAME": "CANYON LAKE HIGH SCHOOL", "ISLANDMARK": 2, "POINTLOCAT": 1, "ADMINTYPE": 0, "ADDRESSBUI": null, "ADDRESS": "8555 FM 32", "CITY": "Fischer", "STATE": "TX", "ZIPCODE": "78623", "GNIS_ID": null, "FOOT_ID": null, "COMPLEX_ID": null, "FID_txdot_": 47, "CNTY_NM": "Comal", "CNTY_NBR": 46, "FIPS": 48091, "Shape_Leng": 1.94903665755 }, "geometry": { "type": "Point", "coordinates": [ -98.214438564787883, 29.943841970130848 ] } },
{ "type": "Feature", "properties": { "OBJECTID": 5650, "FID_Struct": 652, "PERMANENT_": "{20E3D957-05A3-450A-B9C8-B93DDE8720BA}", "SOURCE_FEA": "480001010808", "SOURCE_DAT": "{092B06A5-744D-461B-BB91-876E463350D0}", "SOURCE_D_1": "TNMC VWE DB Build - Vol Update Schools", "SOURCE_ORI": "Oak Ridge National Laboratory, Geographic Information Sciences and Technology Group", "DATA_SECUR": 5, "DISTRIBUTI": "E4", "LOADDATE": "2016\/08\/12", "FTYPE": 730, "FCODE": 73003, "NAME": "Blanco Vista Elementary School", "ISLANDMARK": 2, "POINTLOCAT": 1, "ADMINTYPE": 0, "ADDRESSBUI": null, "ADDRESS": "2951 Blanco Vista Boulevard", "CITY": "Kyle", "STATE": "TX", "ZIPCODE": "78666", "GNIS_ID": null, "FOOT_ID": null, "COMPLEX_ID": null, "FID_txdot_": 59, "CNTY_NM": "Hays", "CNTY_NBR": 106, "FIPS": 48209, "Shape_Leng": 1.8032264710599999 }, "geometry": { "type": "Point", "coordinates": [ -97.896229700540232, 29.946716100867434 ] } },
{ "type": "Feature", "properties": { "OBJECTID": 5663, "FID_Struct": 4459, "PERMANENT_": "b5cda1c7-fb42-4666-851c-8f80afab50eb", "SOURCE_FEA": "10144505", "SOURCE_DAT": "{43CAF7AD-177F-413D-90DA-C94E9789FEC8}", "SOURCE_D_1": "NSD TNMC VWE Database Build - Reviewed features", "SOURCE_ORI": "U.S. Geological Survey", "DATA_SECUR": 5, "DISTRIBUTI": "E4", "LOADDATE": "2009\/07\/06", "FTYPE": 740, "FCODE": 74026, "NAME": "Waring Volunteer Fire Department", "ISLANDMARK": 0, "POINTLOCAT": 1, "ADMINTYPE": 0, "ADDRESSBUI": null, "ADDRESS": "3 Waring Road", "CITY": "Waring", "STATE": "TX", "ZIPCODE": "78074", "GNIS_ID": "2052444", "FOOT_ID": null, "COMPLEX_ID": null, "FID_txdot_": 50, "CNTY_NM": "Kendall", "CNTY_NBR": 131, "FIPS": 48259, "Shape_Leng": 1.6063432560699999 }, "geometry": { "type": "Point", "coordinates": [ -98.80357257871151, 29.950388012097108 ] } },
{ "type": "Feature", "properties": { "OBJECTID": 5679, "FID_Struct": 8736, "PERMANENT_": "a12b6e48-1c0f-4038-9375-6a95274a5648", "SOURCE_FEA": "10410422", "SOURCE_DAT": "1aa9ea2e-7dc0-410b-a853-718bce09e28a", "SOURCE_D_1": "740 TNMC Update 12\/11\/2016", "SOURCE_ORI": "U.S. Geological Survey", "DATA_SECUR": 5, "DISTRIBUTI": "E4", "LOADDATE": "2016\/12\/11", "FTYPE": 740, "FCODE": 74026, "NAME": "South Hays Fire Department Station 13", "ISLANDMARK": 2, "POINTLOCAT": 4, "ADMINTYPE": 0, "ADDRESSBUI": null, "ADDRESS": "3300 Hilliard Road", "CITY": "San Marcos", "STATE": "TX", "ZIPCODE": "78666", "GNIS_ID": "2552491", "FOOT_ID": null, "COMPLEX_ID": null, "FID_txdot_": 59, "CNTY_NM": "Hays", "CNTY_NBR": 106, "FIPS": 48209, "Shape_Leng": 1.8032264710599999 }, "geometry": { "type": "Point", "coordinates": [ -97.970130882634066, 29.957029918196213 ] } },
{ "type": "Feature", "properties": { "OBJECTID": 5693, "FID_Struct": 654, "PERMANENT_": "970556ff-d9fb-4553-99bd-5e206907fee9", "SOURCE_FEA": "10410541", "SOURCE_DAT": "{43CAF7AD-177F-413D-90DA-C94E9789FEC8}", "SOURCE_D_1": "NSD TNMC VWE Database Build - Reviewed features", "SOURCE_ORI": "U.S. Geological Survey", "DATA_SECUR": 5, "DISTRIBUTI": "E4", "LOADDATE": "2009\/12\/24", "FTYPE": 740, "FCODE": 74026, "NAME": "Uhland Volunteer Fire Department", "ISLANDMARK": 2, "POINTLOCAT": 4, "ADMINTYPE": 0, "ADDRESSBUI": null, "ADDRESS": "8950 Camino Real Road", "CITY": "Uhland", "STATE": "TX", "ZIPCODE": "78640", "GNIS_ID": "2552489", "FOOT_ID": null, "COMPLEX_ID": null, "FID_txdot_": 59, "CNTY_NM": "Hays", "CNTY_NBR": 106, "FIPS": 48209, "Shape_Leng": 1.8032264710599999 }, "geometry": { "type": "Point", "coordinates": [ -97.784134600731193, 29.959332901192511 ] } },
{ "type": "Feature", "properties": { "OBJECTID": 5718, "FID_Struct": 482, "PERMANENT_": "ccf78e80-e0a9-4aea-a87a-20c57961ed24", "SOURCE_FEA": "10169074", "SOURCE_DAT": "{43CAF7AD-177F-413D-90DA-C94E9789FEC8}", "SOURCE_D_1": "NSD TNMC VWE Database Build - Reviewed features", "SOURCE_ORI": "U.S. Geological Survey", "DATA_SECUR": 5, "DISTRIBUTI": "E4", "LOADDATE": "2009\/07\/06", "FTYPE": 740, "FCODE": 74026, "NAME": "Kendalia Volunteer Fire Department", "ISLANDMARK": 2, "POINTLOCAT": 1, "ADMINTYPE": 0, "ADDRESSBUI": null, "ADDRESS": "2607 Farm To Market Road 473", "CITY": "Kendalia", "STATE": "TX", "ZIPCODE": "78027", "GNIS_ID": "2045910", "FOOT_ID": null, "COMPLEX_ID": null, "FID_txdot_": 50, "CNTY_NM": "Kendall", "CNTY_NBR": 131, "FIPS": 48259, "Shape_Leng": 1.6063432560699999 }, "geometry": { "type": "Point", "coordinates": [ -98.521821200487977, 29.968440201554131 ] } },
{ "type": "Feature", "properties": { "OBJECTID": 5726, "FID_Struct": 14454, "PERMANENT_": "87b8ecad-fb3a-4305-a7cf-913dcb026e39", "SOURCE_FEA": "10169026", "SOURCE_DAT": "{43CAF7AD-177F-413D-90DA-C94E9789FEC8}", "SOURCE_D_1": "NSD TNMC VWE Database Build - Reviewed features", "SOURCE_ORI": "U.S. Geological Survey", "DATA_SECUR": 5, "DISTRIBUTI": "E4", "LOADDATE": "2009\/07\/06", "FTYPE": 740, "FCODE": 74026, "NAME": "Comfort Volunteer Fire Department", "ISLANDMARK": 2, "POINTLOCAT": 1, "ADMINTYPE": 0, "ADDRESSBUI": null, "ADDRESS": "224 West Farm To Market Road 473", "CITY": "Comfort", "STATE": "TX", "ZIPCODE": "78013", "GNIS_ID": "2551316", "FOOT_ID": null, "COMPLEX_ID": null, "FID_txdot_": 50, "CNTY_NM": "Kendall", "CNTY_NBR": 131, "FIPS": 48259, "Shape_Leng": 1.6063432560699999 }, "geometry": { "type": "Point", "coordinates": [ -98.909158899963245, 29.970280801717649 ] } },
{ "type": "Feature", "properties": { "OBJECTID": 5729, "FID_Struct": 12486, "PERMANENT_": "{CE07BCF6-95CB-4B5A-AA37-E057527447B7}", "SOURCE_FEA": "481479004860", "SOURCE_DAT": "{092B06A5-744D-461B-BB91-876E463350D0}", "SOURCE_D_1": "TNMC VWE DB Build - Vol Update Schools", "SOURCE_ORI": "Oak Ridge National Laboratory, Geographic Information Sciences and Technology Group", "DATA_SECUR": 5, "DISTRIBUTI": "E4", "LOADDATE": "2016\/08\/12", "FTYPE": 730, "FCODE": 73004, "NAME": "Comfort Middle School", "ISLANDMARK": 2, "POINTLOCAT": 1, "ADMINTYPE": 0, "ADDRESSBUI": null, "ADDRESS": "216 High Street", "CITY": "Comfort", "STATE": "TX", "ZIPCODE": "78013", "GNIS_ID": null, "FOOT_ID": null, "COMPLEX_ID": null, "FID_txdot_": 50, "CNTY_NM": "Kendall", "CNTY_NBR": 131, "FIPS": 48259, "Shape_Leng": 1.6063432560699999 }, "geometry": { "type": "Point", "coordinates": [ -98.91513090017088, 29.971199701105377 ] } },
{ "type": "Feature", "properties": { "OBJECTID": 5732, "FID_Struct": 375, "PERMANENT_": "{B2B04231-6CB0-4659-B154-2C09EB807E68}", "SOURCE_FEA": "481479000978", "SOURCE_DAT": "{092B06A5-744D-461B-BB91-876E463350D0}", "SOURCE_D_1": "TNMC VWE DB Build - Vol Update Schools", "SOURCE_ORI": "Oak Ridge National Laboratory, Geographic Information Sciences and Technology Group", "DATA_SECUR": 5, "DISTRIBUTI": "E4", "LOADDATE": "2016\/08\/12", "FTYPE": 730, "FCODE": 73003, "NAME": "Comfort Elementary School", "ISLANDMARK": 2, "POINTLOCAT": 1, "ADMINTYPE": 0, "ADDRESSBUI": null, "ADDRESS": "605 3rd Street", "CITY": "Comfort", "STATE": "TX", "ZIPCODE": "78013", "GNIS_ID": null, "FOOT_ID": null, "COMPLEX_ID": null, "FID_txdot_": 50, "CNTY_NM": "Kendall", "CNTY_NBR": 131, "FIPS": 48259, "Shape_Leng": 1.6063432560699999 }, "geometry": { "type": "Point", "coordinates": [ -98.912934699976404, 29.971745201080239 ] } },
{ "type": "Feature", "properties": { "OBJECTID": 5744, "FID_Struct": 12763, "PERMANENT_": "{2DCDAFF0-257A-49A7-96DB-8E81691CEEB5}", "SOURCE_FEA": "480001009290", "SOURCE_DAT": "{092B06A5-744D-461B-BB91-876E463350D0}", "SOURCE_D_1": "TNMC VWE DB Build - Vol Update Schools", "SOURCE_ORI": "Oak Ridge National Laboratory, Geographic Information Sciences and Technology Group", "DATA_SECUR": 5, "DISTRIBUTI": "E4", "LOADDATE": "2016\/08\/12", "FTYPE": 730, "FCODE": 73003, "NAME": "Tobias Elementary School", "ISLANDMARK": 2, "POINTLOCAT": 1, "ADMINTYPE": 0, "ADDRESSBUI": null, "ADDRESS": "1005 E FM 150", "CITY": "KYLE", "STATE": "TX", "ZIPCODE": "78640", "GNIS_ID": null, "FOOT_ID": null, "COMPLEX_ID": null, "FID_txdot_": 59, "CNTY_NM": "Hays", "CNTY_NBR": 106, "FIPS": 48209, "Shape_Leng": 1.8032264710599999 }, "geometry": { "type": "Point", "coordinates": [ -97.860895000104108, 29.975053001095148 ] } },
{ "type": "Feature", "properties": { "OBJECTID": 5746, "FID_Struct": 10552, "PERMANENT_": "361c1e6b-6661-4253-ae3e-46976c74c9cb", "SOURCE_FEA": "10147987", "SOURCE_DAT": "{43CAF7AD-177F-413D-90DA-C94E9789FEC8}", "SOURCE_D_1": "NSD TNMC VWE Database Build - Reviewed features", "SOURCE_ORI": "U.S. Geological Survey", "DATA_SECUR": 5, "DISTRIBUTI": "E4", "LOADDATE": "2009\/07\/06", "FTYPE": 740, "FCODE": 74026, "NAME": "Sisterdale Volunteer Fire Department", "ISLANDMARK": 2, "POINTLOCAT": 1, "ADMINTYPE": 0, "ADDRESSBUI": null, "ADDRESS": "1207 Ranch To Market Road 1376", "CITY": "Boerne", "STATE": "TX", "ZIPCODE": "78006", "GNIS_ID": "2039978", "FOOT_ID": null, "COMPLEX_ID": null, "FID_txdot_": 50, "CNTY_NM": "Kendall", "CNTY_NBR": 131, "FIPS": 48259, "Shape_Leng": 1.6063432560699999 }, "geometry": { "type": "Point", "coordinates": [ -98.721200773097166, 29.976173281172066 ] } },
{ "type": "Feature", "properties": { "OBJECTID": 5754, "FID_Struct": 12762, "PERMANENT_": "{A8782E17-32AD-4E1D-9DD4-BAC27C8FE5AC}", "SOURCE_FEA": null, "SOURCE_DAT": "{CC44F99C-6658-4584-B606-926E498D5C82}", "SOURCE_D_1": "TNMC VWE DB Build - Vol Update", "SOURCE_ORI": "U.S. Geological Survey", "DATA_SECUR": 5, "DISTRIBUTI": "E4", "LOADDATE": "2015\/05\/14", "FTYPE": 740, "FCODE": 74036, "NAME": "Texas Department of Criminal Justice Kyle Correctional Center", "ISLANDMARK": 2, "POINTLOCAT": 1, "ADMINTYPE": 0, "ADDRESSBUI": null, "ADDRESS": "23001 Interstate 35", "CITY": "Kyle", "STATE": "TX", "ZIPCODE": "78640", "GNIS_ID": "2767818", "FOOT_ID": null, "COMPLEX_ID": null, "FID_txdot_": 59, "CNTY_NM": "Hays", "CNTY_NBR": 106, "FIPS": 48209, "Shape_Leng": 1.8032264710599999 }, "geometry": { "type": "Point", "coordinates": [ -97.871770474627681, 29.978428628878191 ] } },
{ "type": "Feature", "properties": { "OBJECTID": 5781, "FID_Struct": 14762, "PERMANENT_": "d05f7dab-ddcb-4742-8df8-ab25bf089fe2", "SOURCE_FEA": "10410411", "SOURCE_DAT": "{43CAF7AD-177F-413D-90DA-C94E9789FEC8}", "SOURCE_D_1": "NSD TNMC VWE Database Build - Reviewed features", "SOURCE_ORI": "U.S. Geological Survey", "DATA_SECUR": 5, "DISTRIBUTI": "E4", "LOADDATE": "2009\/12\/24", "FTYPE": 740, "FCODE": 74026, "NAME": "Kyle Volunteer Fire Department Station 1", "ISLANDMARK": 2, "POINTLOCAT": 4, "ADMINTYPE": 0, "ADDRESSBUI": null, "ADDRESS": "210 West Moore Street", "CITY": "Kyle", "STATE": "TX", "ZIPCODE": "78640", "GNIS_ID": "2552487", "FOOT_ID": null, "COMPLEX_ID": null, "FID_txdot_": 59, "CNTY_NM": "Hays", "CNTY_NBR": 106, "FIPS": 48209, "Shape_Leng": 1.8032264710599999 }, "geometry": { "type": "Point", "coordinates": [ -97.876990100212936, 29.987230500587202 ] } },
{ "type": "Feature", "properties": { "OBJECTID": 5783, "FID_Struct": 4743, "PERMANENT_": "{342A51FB-F670-4D73-A530-8F09A89B3667}", "SOURCE_FEA": null, "SOURCE_DAT": "{43CAF7AD-177F-413D-90DA-C94E9789FEC8}", "SOURCE_D_1": "NSD TNMC VWE Database Build - Reviewed features", "SOURCE_ORI": "U.S. Geological Survey", "DATA_SECUR": 5, "DISTRIBUTI": "E4", "LOADDATE": "2013\/12\/04", "FTYPE": 740, "FCODE": 74034, "NAME": "Hays County Sheriff's Office Kyle Substation", "ISLANDMARK": 2, "POINTLOCAT": 1, "ADMINTYPE": 5, "ADDRESSBUI": null, "ADDRESS": "101 South Front Street", "CITY": "Kyle", "STATE": "TX", "ZIPCODE": "78640", "GNIS_ID": "2739417", "FOOT_ID": null, "COMPLEX_ID": null, "FID_txdot_": 59, "CNTY_NM": "Hays", "CNTY_NBR": 106, "FIPS": 48209, "Shape_Leng": 1.8032264710599999 }, "geometry": { "type": "Point", "coordinates": [ -97.875110006321677, 29.988203662369187 ] } },
{ "type": "Feature", "properties": { "OBJECTID": 5788, "FID_Struct": 14763, "PERMANENT_": "{14F06889-A68B-4269-A09C-162490E3A3B9}", "SOURCE_FEA": null, "SOURCE_DAT": "{43CAF7AD-177F-413D-90DA-C94E9789FEC8}", "SOURCE_D_1": "NSD TNMC VWE Database Build - Reviewed features", "SOURCE_ORI": "U.S. Geological Survey", "DATA_SECUR": 5, "DISTRIBUTI": "E4", "LOADDATE": "2013\/12\/04", "FTYPE": 740, "FCODE": 74034, "NAME": "Kyle Police Department", "ISLANDMARK": 2, "POINTLOCAT": 1, "ADMINTYPE": 6, "ADDRESSBUI": null, "ADDRESS": "111 North Front Street", "CITY": "Kyle", "STATE": "TX", "ZIPCODE": "78640", "GNIS_ID": "2739418", "FOOT_ID": null, "COMPLEX_ID": null, "FID_txdot_": 59, "CNTY_NM": "Hays", "CNTY_NBR": 106, "FIPS": 48209, "Shape_Leng": 1.8032264710599999 }, "geometry": { "type": "Point", "coordinates": [ -97.875475568142917, 29.989137661374002 ] } },
{ "type": "Feature", "properties": { "OBJECTID": 5801, "FID_Struct": 6741, "PERMANENT_": "{9C08E617-50D6-4D71-B2E7-07DEEA154A8E}", "SOURCE_FEA": "480001005245", "SOURCE_DAT": "{092B06A5-744D-461B-BB91-876E463350D0}", "SOURCE_D_1": "TNMC VWE DB Build - Vol Update Schools", "SOURCE_ORI": "Oak Ridge National Laboratory, Geographic Information Sciences and Technology Group", "DATA_SECUR": 5, "DISTRIBUTI": "E4", "LOADDATE": "2016\/08\/12", "FTYPE": 730, "FCODE": 73003, "NAME": "Kyle Elementary School", "ISLANDMARK": 2, "POINTLOCAT": 1, "ADMINTYPE": 0, "ADDRESSBUI": null, "ADDRESS": "500 West Blanco Street", "CITY": "Kyle", "STATE": "TX", "ZIPCODE": "78640", "GNIS_ID": null, "FOOT_ID": null, "COMPLEX_ID": null, "FID_txdot_": 59, "CNTY_NM": "Hays", "CNTY_NBR": 106, "FIPS": 48209, "Shape_Leng": 1.8032264710599999 }, "geometry": { "type": "Point", "coordinates": [ -97.880052500422494, 29.991500600372433 ] } },
{ "type": "Feature", "properties": { "OBJECTID": 5802, "FID_Struct": 656, "PERMANENT_": "{65E962DB-70A4-4D9D-B768-A9867C2492D0}", "SOURCE_FEA": "480001008837", "SOURCE_DAT": "{092B06A5-744D-461B-BB91-876E463350D0}", "SOURCE_D_1": "TNMC VWE DB Build - Vol Update Schools", "SOURCE_ORI": "Oak Ridge National Laboratory, Geographic Information Sciences and Technology Group", "DATA_SECUR": 5, "DISTRIBUTI": "E4", "LOADDATE": "2016\/08\/12", "FTYPE": 730, "FCODE": 73004, "NAME": "Wallace Middle School", "ISLANDMARK": 2, "POINTLOCAT": 1, "ADMINTYPE": 0, "ADDRESSBUI": null, "ADDRESS": "1500 West Center Street", "CITY": "Kyle", "STATE": "TX", "ZIPCODE": "78640", "GNIS_ID": null, "FOOT_ID": null, "COMPLEX_ID": null, "FID_txdot_": 59, "CNTY_NM": "Hays", "CNTY_NBR": 106, "FIPS": 48209, "Shape_Leng": 1.8032264710599999 }, "geometry": { "type": "Point", "coordinates": [ -97.889830000753875, 29.991567401114708 ] } },
{ "type": "Feature", "properties": { "OBJECTID": 5813, "FID_Struct": 10508, "PERMANENT_": "{1D49E5BD-6173-40D3-B0B1-23E9E82CF1DD}", "SOURCE_FEA": "481479000979", "SOURCE_DAT": "{092B06A5-744D-461B-BB91-876E463350D0}", "SOURCE_D_1": "TNMC VWE DB Build - Vol Update Schools", "SOURCE_ORI": "Oak Ridge National Laboratory, Geographic Information Sciences and Technology Group", "DATA_SECUR": 5, "DISTRIBUTI": "E4", "LOADDATE": "2016\/08\/12", "FTYPE": 730, "FCODE": 73005, "NAME": "Comfort High School", "ISLANDMARK": 2, "POINTLOCAT": 1, "ADMINTYPE": 0, "ADDRESSBUI": null, "ADDRESS": "143 Highway 87 North", "CITY": "Comfort", "STATE": "TX", "ZIPCODE": "78013", "GNIS_ID": null, "FOOT_ID": null, "COMPLEX_ID": null, "FID_txdot_": 50, "CNTY_NM": "Kendall", "CNTY_NBR": 131, "FIPS": 48259, "Shape_Leng": 1.6063432560699999 }, "geometry": { "type": "Point", "coordinates": [ -98.90278950013527, 29.994164001067873 ] } },
{ "type": "Feature", "properties": { "OBJECTID": 5816, "FID_Struct": 2743, "PERMANENT_": "{8E1867B4-5FD6-4BFB-95DA-7A17965BB9C2}", "SOURCE_FEA": "480001009624", "SOURCE_DAT": "{CC19ABE0-361F-4846-B852-AA57C04368C8}", "SOURCE_D_1": "NSD TNMC VWE Database Build - Reviewed Schools", "SOURCE_ORI": "Oak Ridge National Laboratory, Geographic Information Sciences and Technology Group", "DATA_SECUR": 5, "DISTRIBUTI": "E4", "LOADDATE": "2011\/12\/20", "FTYPE": 730, "FCODE": 73005, "NAME": "LEHMAN HIGH SCHOOL", "ISLANDMARK": 2, "POINTLOCAT": 1, "ADMINTYPE": 0, "ADDRESSBUI": null, "ADDRESS": "1700 LEHMAN RD", "CITY": "Kyle", "STATE": "TX", "ZIPCODE": "78640", "GNIS_ID": null, "FOOT_ID": null, "COMPLEX_ID": null, "FID_txdot_": 59, "CNTY_NM": "Hays", "CNTY_NBR": 106, "FIPS": 48209, "Shape_Leng": 1.8032264710599999 }, "geometry": { "type": "Point", "coordinates": [ -97.84763000082387, 29.995200000279851 ] } },
{ "type": "Feature", "properties": { "OBJECTID": 5819, "FID_Struct": 8771, "PERMANENT_": "{E192C108-786D-4A2E-946E-7A73DF5768C1}", "SOURCE_FEA": "480001008839", "SOURCE_DAT": "{CC19ABE0-361F-4846-B852-AA57C04368C8}", "SOURCE_D_1": "NSD TNMC VWE Database Build - Reviewed Schools", "SOURCE_ORI": "Oak Ridge National Laboratory, Geographic Information Sciences and Technology Group", "DATA_SECUR": 5, "DISTRIBUTI": "E4", "LOADDATE": "2011\/12\/20", "FTYPE": 730, "FCODE": 73002, "NAME": "SUSIE FUENTES EL", "ISLANDMARK": 2, "POINTLOCAT": 1, "ADMINTYPE": 0, "ADDRESSBUI": null, "ADDRESS": "901 GOFORTH", "CITY": "Kyle", "STATE": "TX", "ZIPCODE": "78640", "GNIS_ID": null, "FOOT_ID": null, "COMPLEX_ID": null, "FID_txdot_": 59, "CNTY_NM": "Hays", "CNTY_NBR": 106, "FIPS": 48209, "Shape_Leng": 1.8032264710599999 }, "geometry": { "type": "Point", "coordinates": [ -97.848323777420376, 29.995275819423568 ] } },
{ "type": "Feature", "properties": { "OBJECTID": 5835, "FID_Struct": 8772, "PERMANENT_": "b067ab41-c63a-4056-b88f-a24a32f96299", "SOURCE_FEA": "10410439", "SOURCE_DAT": "{43CAF7AD-177F-413D-90DA-C94E9789FEC8}", "SOURCE_D_1": "NSD TNMC VWE Database Build - Reviewed features", "SOURCE_ORI": "U.S. Geological Survey", "DATA_SECUR": 5, "DISTRIBUTI": "E4", "LOADDATE": "2009\/12\/24", "FTYPE": 740, "FCODE": 74026, "NAME": "Kyle Volunteer Fire Department Station 3", "ISLANDMARK": 2, "POINTLOCAT": 4, "ADMINTYPE": 0, "ADDRESSBUI": null, "ADDRESS": "100 High Road", "CITY": "Kyle", "STATE": "TX", "ZIPCODE": "78640", "GNIS_ID": "2552495", "FOOT_ID": null, "COMPLEX_ID": null, "FID_txdot_": 59, "CNTY_NM": "Hays", "CNTY_NBR": 106, "FIPS": 48209, "Shape_Leng": 1.8032264710599999 }, "geometry": { "type": "Point", "coordinates": [ -97.819883100824427, 29.998574601037035 ] } },
{ "type": "Feature", "properties": { "OBJECTID": 5842, "FID_Struct": 6660, "PERMANENT_": "{F2C60B6F-E059-41F7-911E-2B017900E22F}", "SOURCE_FEA": null, "SOURCE_DAT": "{43CAF7AD-177F-413D-90DA-C94E9789FEC8}", "SOURCE_D_1": "NSD TNMC VWE Database Build - Reviewed features", "SOURCE_ORI": "U.S. Geological Survey", "DATA_SECUR": 5, "DISTRIBUTI": "E4", "LOADDATE": "2013\/12\/04", "FTYPE": 740, "FCODE": 74034, "NAME": "Hays County Sheriff's Office Wimberley - Junction Substation", "ISLANDMARK": 2, "POINTLOCAT": 4, "ADMINTYPE": 5, "ADDRESSBUI": null, "ADDRESS": "9595 Ranch Road 12", "CITY": "Wimberley", "STATE": "TX", "ZIPCODE": "78676", "GNIS_ID": "2739488", "FOOT_ID": null, "COMPLEX_ID": null, "FID_txdot_": 59, "CNTY_NM": "Hays", "CNTY_NBR": 106, "FIPS": 48209, "Shape_Leng": 1.8032264710599999 }, "geometry": { "type": "Point", "coordinates": [ -98.101648998602343, 29.999737497287697 ] } },
{ "type": "Feature", "properties": { "OBJECTID": 5846, "FID_Struct": 2663, "PERMANENT_": "af1d769d-fbe1-4961-a3d0-514ce9b2fe12", "SOURCE_FEA": "10410432", "SOURCE_DAT": "4f7eb305-b36a-4bae-8116-c78c4d4bb1d4", "SOURCE_D_1": "730 TNMC Update 10\/20\/2016 13:24:06", "SOURCE_ORI": "Oak Ridge National Laboratory, Geographic Information Sciences and Technology Group", "DATA_SECUR": 5, "DISTRIBUTI": "E4", "LOADDATE": "2016\/10\/20", "FTYPE": 740, "FCODE": 74026, "NAME": "Wimberley Volunteer Fire Department Central Station", "ISLANDMARK": 2, "POINTLOCAT": 4, "ADMINTYPE": 0, "ADDRESSBUI": null, "ADDRESS": "111 Green Acres Drive", "CITY": "Wimberley", "STATE": "TX", "ZIPCODE": "78676", "GNIS_ID": "2552486", "FOOT_ID": null, "COMPLEX_ID": null, "FID_txdot_": 59, "CNTY_NM": "Hays", "CNTY_NBR": 106, "FIPS": 48209, "Shape_Leng": 1.8032264710599999 }, "geometry": { "type": "Point", "coordinates": [ -98.106086657373282, 30.001883125006259 ] } },
{ "type": "Feature", "properties": { "OBJECTID": 5848, "FID_Struct": 10729, "PERMANENT_": "{C9D20E61-3CF2-4F16-A0CB-722B9EF7C16A}", "SOURCE_FEA": "480000905246", "SOURCE_DAT": "{CC19ABE0-361F-4846-B852-AA57C04368C8}", "SOURCE_D_1": "NSD TNMC VWE Database Build - Reviewed Schools", "SOURCE_ORI": "Oak Ridge National Laboratory, Geographic Information Sciences and Technology Group", "DATA_SECUR": 5, "DISTRIBUTI": "E4", "LOADDATE": "2011\/12\/20", "FTYPE": 730, "FCODE": 73002, "NAME": "BOWEN INT", "ISLANDMARK": 2, "POINTLOCAT": 1, "ADMINTYPE": 0, "ADDRESSBUI": null, "ADDRESS": "14501 RANCH RD 12 N", "CITY": "Wimberley", "STATE": "TX", "ZIPCODE": "78676", "GNIS_ID": null, "FOOT_ID": null, "COMPLEX_ID": null, "FID_txdot_": 59, "CNTY_NM": "Hays", "CNTY_NBR": 106, "FIPS": 48209, "Shape_Leng": 1.8032264710599999 }, "geometry": { "type": "Point", "coordinates": [ -98.102721101997247, 30.002089531107003 ] } },
{ "type": "Feature", "properties": { "OBJECTID": 5850, "FID_Struct": 6659, "PERMANENT_": "{D2169E46-65AB-4A71-806D-66CC0EF1816C}", "SOURCE_FEA": "480000906499", "SOURCE_DAT": "{092B06A5-744D-461B-BB91-876E463350D0}", "SOURCE_D_1": "TNMC VWE DB Build - Vol Update Schools", "SOURCE_ORI": "Oak Ridge National Laboratory, Geographic Information Sciences and Technology Group", "DATA_SECUR": 5, "DISTRIBUTI": "E4", "LOADDATE": "2015\/03\/30", "FTYPE": 730, "FCODE": 73003, "NAME": "Scudder Primary School", "ISLANDMARK": 2, "POINTLOCAT": 1, "ADMINTYPE": 0, "ADDRESSBUI": null, "ADDRESS": "400 Green Acres Drive", "CITY": "Wimberley", "STATE": "TX", "ZIPCODE": "78676", "GNIS_ID": "2006636", "FOOT_ID": null, "COMPLEX_ID": null, "FID_txdot_": 59, "CNTY_NM": "Hays", "CNTY_NBR": 106, "FIPS": 48209, "Shape_Leng": 1.8032264710599999 }, "geometry": { "type": "Point", "coordinates": [ -98.110630415461287, 30.002509376906289 ] } },
{ "type": "Feature", "properties": { "OBJECTID": 5853, "FID_Struct": 4665, "PERMANENT_": "{2F405026-54F4-48B9-BCC5-96C9BCD42E32}", "SOURCE_FEA": "480013208279", "SOURCE_DAT": "{CC19ABE0-361F-4846-B852-AA57C04368C8}", "SOURCE_D_1": "NSD TNMC VWE Database Build - Reviewed Schools", "SOURCE_ORI": "Oak Ridge National Laboratory, Geographic Information Sciences and Technology Group", "DATA_SECUR": 5, "DISTRIBUTI": "E4", "LOADDATE": "2011\/12\/20", "FTYPE": 730, "FCODE": 73005, "NAME": "KATHERINE ANNE PORTER SCHOOL", "ISLANDMARK": 2, "POINTLOCAT": 1, "ADMINTYPE": 0, "ADDRESSBUI": null, "ADDRESS": "515 FM 2325", "CITY": "Wimberley", "STATE": "TX", "ZIPCODE": "78676", "GNIS_ID": null, "FOOT_ID": null, "COMPLEX_ID": null, "FID_txdot_": 59, "CNTY_NM": "Hays", "CNTY_NBR": 106, "FIPS": 48209, "Shape_Leng": 1.8032264710599999 }, "geometry": { "type": "Point", "coordinates": [ -98.10690372472709, 30.002943125325032 ] } },
{ "type": "Feature", "properties": { "OBJECTID": 5857, "FID_Struct": 6658, "PERMANENT_": "{23A57ABA-847A-49C5-A219-BC66BDE4374E}", "SOURCE_FEA": "480000907342", "SOURCE_DAT": "{092B06A5-744D-461B-BB91-876E463350D0}", "SOURCE_D_1": "TNMC VWE DB Build - Vol Update Schools", "SOURCE_ORI": "Oak Ridge National Laboratory, Geographic Information Sciences and Technology Group", "DATA_SECUR": 5, "DISTRIBUTI": "E4", "LOADDATE": "2015\/03\/30", "FTYPE": 730, "FCODE": 73004, "NAME": "Danforth Junior High School", "ISLANDMARK": 2, "POINTLOCAT": 1, "ADMINTYPE": 0, "ADDRESSBUI": null, "ADDRESS": "200 Texan Boulevard", "CITY": "Wimberley", "STATE": "TX", "ZIPCODE": "78676", "GNIS_ID": null, "FOOT_ID": null, "COMPLEX_ID": null, "FID_txdot_": 59, "CNTY_NM": "Hays", "CNTY_NBR": 106, "FIPS": 48209, "Shape_Leng": 1.8032264710599999 }, "geometry": { "type": "Point", "coordinates": [ -98.113745747967869, 30.003131000895053 ] } },
{ "type": "Feature", "properties": { "OBJECTID": 5862, "FID_Struct": 14682, "PERMANENT_": "{9E88E696-BE7E-490B-9A52-1627A37553F7}", "SOURCE_FEA": null, "SOURCE_DAT": "{43CAF7AD-177F-413D-90DA-C94E9789FEC8}", "SOURCE_D_1": "NSD TNMC VWE Database Build - Reviewed features", "SOURCE_ORI": "U.S. Geological Survey", "DATA_SECUR": 5, "DISTRIBUTI": "E4", "LOADDATE": "2013\/12\/04", "FTYPE": 740, "FCODE": 74034, "NAME": "Hays County Sheriff's Office Wimberley - Lions Field Substation", "ISLANDMARK": 2, "POINTLOCAT": 4, "ADMINTYPE": 5, "ADDRESSBUI": null, "ADDRESS": "650 Farm to Market Road 2325", "CITY": "Wimberley", "STATE": "TX", "ZIPCODE": "78676", "GNIS_ID": "2739414", "FOOT_ID": null, "COMPLEX_ID": null, "FID_txdot_": 59, "CNTY_NM": "Hays", "CNTY_NBR": 106, "FIPS": 48209, "Shape_Leng": 1.8032264710599999 }, "geometry": { "type": "Point", "coordinates": [ -98.107372264318485, 30.003625640610892 ] } },
{ "type": "Feature", "properties": { "OBJECTID": 5869, "FID_Struct": 6744, "PERMANENT_": "{B7B517DF-DFA4-4E43-90C0-7110BA1EE088}", "SOURCE_FEA": "480001010809", "SOURCE_DAT": "{CC19ABE0-361F-4846-B852-AA57C04368C8}", "SOURCE_D_1": "NSD TNMC VWE Database Build - Reviewed Schools", "SOURCE_ORI": "Oak Ridge National Laboratory, Geographic Information Sciences and Technology Group", "DATA_SECUR": 5, "DISTRIBUTI": "E4", "LOADDATE": "2011\/12\/20", "FTYPE": 730, "FCODE": 73002, "NAME": "CAMINO REAL ELEMENTARY SCHOOL", "ISLANDMARK": 2, "POINTLOCAT": 1, "ADMINTYPE": 0, "ADDRESSBUI": null, "ADDRESS": "21003 IH 35", "CITY": "Kyle", "STATE": "TX", "ZIPCODE": "78640", "GNIS_ID": null, "FOOT_ID": null, "COMPLEX_ID": null, "FID_txdot_": 59, "CNTY_NM": "Hays", "CNTY_NBR": 106, "FIPS": 48209, "Shape_Leng": 1.8032264710599999 }, "geometry": { "type": "Point", "coordinates": [ -97.761884000945827, 30.004998000657281 ] } },
{ "type": "Feature", "properties": { "OBJECTID": 5872, "FID_Struct": 12689, "PERMANENT_": "{008AD831-6706-4557-9148-8CB4C1C1B23A}", "SOURCE_FEA": "480000906198", "SOURCE_DAT": "{092B06A5-744D-461B-BB91-876E463350D0}", "SOURCE_D_1": "TNMC VWE DB Build - Vol Update Schools", "SOURCE_ORI": "Oak Ridge National Laboratory, Geographic Information Sciences and Technology Group", "DATA_SECUR": 5, "DISTRIBUTI": "E4", "LOADDATE": "2015\/03\/30", "FTYPE": 730, "FCODE": 73005, "NAME": "Wimberley High School", "ISLANDMARK": 2, "POINTLOCAT": 1, "ADMINTYPE": 0, "ADDRESSBUI": null, "ADDRESS": "100 Carney Lane", "CITY": "Wimberley", "STATE": "TX", "ZIPCODE": "78676", "GNIS_ID": "2006638", "FOOT_ID": null, "COMPLEX_ID": null, "FID_txdot_": 59, "CNTY_NM": "Hays", "CNTY_NBR": 106, "FIPS": 48209, "Shape_Leng": 1.8032264710599999 }, "geometry": { "type": "Point", "coordinates": [ -98.11716470688566, 30.005163952554426 ] } },
{ "type": "Feature", "properties": { "OBJECTID": 5886, "FID_Struct": 718, "PERMANENT_": "{62BBA678-8D0D-4EA6-AAE6-965D5C7A1F23}", "SOURCE_FEA": null, "SOURCE_DAT": "{43CAF7AD-177F-413D-90DA-C94E9789FEC8}", "SOURCE_D_1": "NSD TNMC VWE Database Build - Reviewed features", "SOURCE_ORI": "U.S. Geological Survey", "DATA_SECUR": 5, "DISTRIBUTI": "E4", "LOADDATE": "2013\/12\/04", "FTYPE": 740, "FCODE": 74034, "NAME": "Hays County Sheriff's Office Niederwald Substation", "ISLANDMARK": 2, "POINTLOCAT": 1, "ADMINTYPE": 5, "ADDRESSBUI": null, "ADDRESS": "13851 Camino Real", "CITY": "Niederwald", "STATE": "TX", "ZIPCODE": "78640", "GNIS_ID": "2739485", "FOOT_ID": null, "COMPLEX_ID": null, "FID_txdot_": 59, "CNTY_NM": "Hays", "CNTY_NBR": 106, "FIPS": 48209, "Shape_Leng": 1.8032264710599999 }, "geometry": { "type": "Point", "coordinates": [ -97.729824466825676, 30.008340533388946 ] } },
{ "type": "Feature", "properties": { "OBJECTID": 5887, "FID_Struct": 4744, "PERMANENT_": "0779b98d-ccaa-4be5-ad70-c6fb60271d28", "SOURCE_FEA": "10410340", "SOURCE_DAT": "{43CAF7AD-177F-413D-90DA-C94E9789FEC8}", "SOURCE_D_1": "NSD TNMC VWE Database Build - Reviewed features", "SOURCE_ORI": "U.S. Geological Survey", "DATA_SECUR": 5, "DISTRIBUTI": "E4", "LOADDATE": "2009\/12\/24", "FTYPE": 740, "FCODE": 74026, "NAME": "Kyle Volunteer Fire Department Station 2", "ISLANDMARK": 2, "POINTLOCAT": 4, "ADMINTYPE": 0, "ADDRESSBUI": null, "ADDRESS": "150 Bunton Creek Road", "CITY": "Kyle", "STATE": "TX", "ZIPCODE": "78640", "GNIS_ID": "2552488", "FOOT_ID": null, "COMPLEX_ID": null, "FID_txdot_": 59, "CNTY_NM": "Hays", "CNTY_NBR": 106, "FIPS": 48209, "Shape_Leng": 1.8032264710599999 }, "geometry": { "type": "Point", "coordinates": [ -97.861435800221955, 30.008443201792375 ] } },
{ "type": "Feature", "properties": { "OBJECTID": 5890, "FID_Struct": 657, "PERMANENT_": "{5E8B1FA7-D1CA-4D53-A230-2A86E0109D1F}", "SOURCE_FEA": "480001010805", "SOURCE_DAT": "{CC19ABE0-361F-4846-B852-AA57C04368C8}", "SOURCE_D_1": "NSD TNMC VWE Database Build - Reviewed Schools", "SOURCE_ORI": "Oak Ridge National Laboratory, Geographic Information Sciences and Technology Group", "DATA_SECUR": 5, "DISTRIBUTI": "E4", "LOADDATE": "2011\/12\/20", "FTYPE": 730, "FCODE": 73002, "NAME": "NEW M S #5", "ISLANDMARK": 2, "POINTLOCAT": 1, "ADMINTYPE": 0, "ADDRESSBUI": null, "ADDRESS": "21003 IH 35", "CITY": "Kyle", "STATE": "TX", "ZIPCODE": "78640", "GNIS_ID": null, "FOOT_ID": null, "COMPLEX_ID": null, "FID_txdot_": 59, "CNTY_NM": "Hays", "CNTY_NBR": 106, "FIPS": 48209, "Shape_Leng": 1.8032264710599999 }, "geometry": { "type": "Point", "coordinates": [ -97.862200000029929, 30.009300000294843 ] } },
{ "type": "Feature", "properties": { "OBJECTID": 5894, "FID_Struct": 14764, "PERMANENT_": "{23248158-2C52-4756-ACA8-5E5688E7C0E8}", "SOURCE_FEA": "480001011534", "SOURCE_DAT": "{CC19ABE0-361F-4846-B852-AA57C04368C8}", "SOURCE_D_1": "NSD TNMC VWE Database Build - Reviewed Schools", "SOURCE_ORI": "Oak Ridge National Laboratory, Geographic Information Sciences and Technology Group", "DATA_SECUR": 5, "DISTRIBUTI": "E4", "LOADDATE": "2011\/12\/20", "FTYPE": 730, "FCODE": 73002, "NAME": "NEW EL #6", "ISLANDMARK": 2, "POINTLOCAT": 1, "ADMINTYPE": 0, "ADDRESSBUI": null, "ADDRESS": "21003 IH 35", "CITY": "Kyle", "STATE": "TX", "ZIPCODE": "78640", "GNIS_ID": null, "FOOT_ID": null, "COMPLEX_ID": null, "FID_txdot_": 59, "CNTY_NM": "Hays", "CNTY_NBR": 106, "FIPS": 48209, "Shape_Leng": 1.8032264710599999 }, "geometry": { "type": "Point", "coordinates": [ -97.862230000514103, 30.009490000962842 ] } },
{ "type": "Feature", "properties": { "OBJECTID": 5895, "FID_Struct": 12833, "PERMANENT_": "6c1e33eb-10f0-4197-8039-22e400b41b16", "SOURCE_FEA": "10139105", "SOURCE_DAT": "{43CAF7AD-177F-413D-90DA-C94E9789FEC8}", "SOURCE_D_1": "NSD TNMC VWE Database Build - Reviewed features", "SOURCE_ORI": "U.S. Geological Survey", "DATA_SECUR": 5, "DISTRIBUTI": "E4", "LOADDATE": "2009\/12\/24", "FTYPE": 740, "FCODE": 74026, "NAME": "Chisholm Trail Fire and Rescue Station 1", "ISLANDMARK": 2, "POINTLOCAT": 4, "ADMINTYPE": 0, "ADDRESSBUI": null, "ADDRESS": "8811 Niederwald Strasse", "CITY": "Kyle", "STATE": "TX", "ZIPCODE": "78640", "GNIS_ID": "2552360", "FOOT_ID": null, "COMPLEX_ID": null, "FID_txdot_": 59, "CNTY_NM": "Hays", "CNTY_NBR": 106, "FIPS": 48209, "Shape_Leng": 1.8032264710599999 }, "geometry": { "type": "Point", "coordinates": [ -97.729967800773352, 30.010961301722773 ] } },
{ "type": "Feature", "properties": { "OBJECTID": 5896, "FID_Struct": 2742, "PERMANENT_": "{196C54D1-2C23-4889-B714-2B18579355E2}", "SOURCE_FEA": "480001010806", "SOURCE_DAT": "{092B06A5-744D-461B-BB91-876E463350D0}", "SOURCE_D_1": "TNMC VWE DB Build - Vol Update Schools", "SOURCE_ORI": "Oak Ridge National Laboratory, Geographic Information Sciences and Technology Group", "DATA_SECUR": 5, "DISTRIBUTI": "E4", "LOADDATE": "2016\/08\/12", "FTYPE": 730, "FCODE": 73003, "NAME": "Negley Elementary School", "ISLANDMARK": 2, "POINTLOCAT": 1, "ADMINTYPE": 0, "ADDRESSBUI": null, "ADDRESS": "5940 MCNAUGHTON", "CITY": "KYLE", "STATE": "TX", "ZIPCODE": "78640", "GNIS_ID": null, "FOOT_ID": null, "COMPLEX_ID": null, "FID_txdot_": 59, "CNTY_NM": "Hays", "CNTY_NBR": 106, "FIPS": 48209, "Shape_Leng": 1.8032264710599999 }, "geometry": { "type": "Point", "coordinates": [ -97.883366300714158, 30.01152470090426 ] } },
{ "type": "Feature", "properties": { "OBJECTID": 5905, "FID_Struct": 10795, "PERMANENT_": "{53276BD9-A80E-45EF-986A-7838B3050CED}", "SOURCE_FEA": "480001010807", "SOURCE_DAT": "{092B06A5-744D-461B-BB91-876E463350D0}", "SOURCE_D_1": "TNMC VWE DB Build - Vol Update Schools", "SOURCE_ORI": "Oak Ridge National Laboratory, Geographic Information Sciences and Technology Group", "DATA_SECUR": 5, "DISTRIBUTI": "E4", "LOADDATE": "2016\/08\/12", "FTYPE": 730, "FCODE": 73003, "NAME": "SCIENCE HALL ELEMENTARY SCHOOL", "ISLANDMARK": 2, "POINTLOCAT": 1, "ADMINTYPE": 0, "ADDRESSBUI": null, "ADDRESS": "1510 BEBEE RD", "CITY": "KYLE", "STATE": "TX", "ZIPCODE": "78640", "GNIS_ID": null, "FOOT_ID": null, "COMPLEX_ID": null, "FID_txdot_": 59, "CNTY_NM": "Hays", "CNTY_NBR": 106, "FIPS": 48209, "Shape_Leng": 1.8032264710599999 }, "geometry": { "type": "Point", "coordinates": [ -97.83833000002943, 30.014985000757235 ] } },
{ "type": "Feature", "properties": { "OBJECTID": 5931, "FID_Struct": 4745, "PERMANENT_": "{45A5E15D-3C89-4788-B0BE-DFA791F5F0EC}", "SOURCE_FEA": "480001010804", "SOURCE_DAT": "{092B06A5-744D-461B-BB91-876E463350D0}", "SOURCE_D_1": "TNMC VWE DB Build - Vol Update Schools", "SOURCE_ORI": "Oak Ridge National Laboratory, Geographic Information Sciences and Technology Group", "DATA_SECUR": 5, "DISTRIBUTI": "E4", "LOADDATE": "2016\/08\/12", "FTYPE": 730, "FCODE": 73004, "NAME": "CHAPA MIDDLE SCHOOL", "ISLANDMARK": 2, "POINTLOCAT": 1, "ADMINTYPE": 0, "ADDRESSBUI": null, "ADDRESS": "3311 DACY LN", "CITY": "KYLE", "STATE": "TX", "ZIPCODE": "78640", "GNIS_ID": null, "FOOT_ID": null, "COMPLEX_ID": null, "FID_txdot_": 59, "CNTY_NM": "Hays", "CNTY_NBR": 106, "FIPS": 48209, "Shape_Leng": 1.8032264710599999 }, "geometry": { "type": "Point", "coordinates": [ -97.832980000626492, 30.020977000987841 ] } },
{ "type": "Feature", "properties": { "OBJECTID": 5959, "FID_Struct": 2741, "PERMANENT_": "{3BC0953D-E1A4-4F81-9325-AD727945D746}", "SOURCE_FEA": "480001006199", "SOURCE_DAT": "{092B06A5-744D-461B-BB91-876E463350D0}", "SOURCE_D_1": "TNMC VWE DB Build - Vol Update Schools", "SOURCE_ORI": "Oak Ridge National Laboratory, Geographic Information Sciences and Technology Group", "DATA_SECUR": 5, "DISTRIBUTI": "E4", "LOADDATE": "2014\/06\/25", "FTYPE": 730, "FCODE": 73004, "NAME": "R C Barton Middle School", "ISLANDMARK": 2, "POINTLOCAT": 1, "ADMINTYPE": 0, "ADDRESSBUI": null, "ADDRESS": "4950 Jack C Hays Trail", "CITY": "Buda", "STATE": "TX", "ZIPCODE": "78610", "GNIS_ID": null, "FOOT_ID": null, "COMPLEX_ID": null, "FID_txdot_": 59, "CNTY_NM": "Hays", "CNTY_NBR": 106, "FIPS": 48209, "Shape_Leng": 1.8032264710599999 }, "geometry": { "type": "Point", "coordinates": [ -97.890940000680473, 30.027405000640329 ] } },
{ "type": "Feature", "properties": { "OBJECTID": 5965, "FID_Struct": 8711, "PERMANENT_": "8b3a7193-eeda-4251-a550-b415f866fc11", "SOURCE_FEA": "10410433", "SOURCE_DAT": "4f7eb305-b36a-4bae-8116-c78c4d4bb1d4", "SOURCE_D_1": "730 TNMC Update 10\/20\/2016 13:24:06", "SOURCE_ORI": "Oak Ridge National Laboratory, Geographic Information Sciences and Technology Group", "DATA_SECUR": 5, "DISTRIBUTI": "E4", "LOADDATE": "2016\/10\/20", "FTYPE": 740, "FCODE": 74026, "NAME": "Wimberley Volunteer Fire Department Jacobs Well Station", "ISLANDMARK": 2, "POINTLOCAT": 4, "ADMINTYPE": 0, "ADDRESSBUI": null, "ADDRESS": "Pleasant Valley Road and Jacobs Well Road", "CITY": "Wimberley", "STATE": "TX", "ZIPCODE": "78676", "GNIS_ID": "2552497", "FOOT_ID": null, "COMPLEX_ID": null, "FID_txdot_": 59, "CNTY_NM": "Hays", "CNTY_NBR": 106, "FIPS": 48209, "Shape_Leng": 1.8032264710599999 }, "geometry": { "type": "Point", "coordinates": [ -98.125846782602878, 30.029192538105178 ] } },
{ "type": "Feature", "properties": { "OBJECTID": 5971, "FID_Struct": 8770, "PERMANENT_": "{1206B574-6DBF-4364-B823-25F71862C8C0}", "SOURCE_FEA": "480001008835", "SOURCE_DAT": "{092B06A5-744D-461B-BB91-876E463350D0}", "SOURCE_D_1": "TNMC VWE DB Build - Vol Update Schools", "SOURCE_ORI": "Oak Ridge National Laboratory, Geographic Information Sciences and Technology Group", "DATA_SECUR": 5, "DISTRIBUTI": "E4", "LOADDATE": "2014\/06\/25", "FTYPE": 730, "FCODE": 73005, "NAME": "Academy at Hays", "ISLANDMARK": 2, "POINTLOCAT": 1, "ADMINTYPE": 0, "ADDRESSBUI": null, "ADDRESS": "4950 Jack C Hays Trail", "CITY": "Buda", "STATE": "TX", "ZIPCODE": "78610", "GNIS_ID": null, "FOOT_ID": null, "COMPLEX_ID": null, "FID_txdot_": 59, "CNTY_NM": "Hays", "CNTY_NBR": 106, "FIPS": 48209, "Shape_Leng": 1.8032264710599999 }, "geometry": { "type": "Point", "coordinates": [ -97.890118842310699, 30.030429724652095 ] } },
{ "type": "Feature", "properties": { "OBJECTID": 5975, "FID_Struct": 12760, "PERMANENT_": "{6B25AAC3-2106-496F-BFAE-0C65A194F254}", "SOURCE_FEA": "480001005244", "SOURCE_DAT": "{092B06A5-744D-461B-BB91-876E463350D0}", "SOURCE_D_1": "TNMC VWE DB Build - Vol Update Schools", "SOURCE_ORI": "Oak Ridge National Laboratory, Geographic Information Sciences and Technology Group", "DATA_SECUR": 5, "DISTRIBUTI": "E4", "LOADDATE": "2014\/06\/25", "FTYPE": 730, "FCODE": 73005, "NAME": "Jack C Hays High School", "ISLANDMARK": 2, "POINTLOCAT": 1, "ADMINTYPE": 0, "ADDRESSBUI": null, "ADDRESS": "4800 Jack C Hays Trail", "CITY": "Buda", "STATE": "TX", "ZIPCODE": "78610", "GNIS_ID": null, "FOOT_ID": null, "COMPLEX_ID": null, "FID_txdot_": 59, "CNTY_NM": "Hays", "CNTY_NBR": 106, "FIPS": 48209, "Shape_Leng": 1.8032264710599999 }, "geometry": { "type": "Point", "coordinates": [ -97.889717866086642, 30.03169744048455 ] } },
{ "type": "Feature", "properties": { "OBJECTID": 5977, "FID_Struct": 6704, "PERMANENT_": "{88894401-51AB-4AE9-B0DE-678217D06411}", "SOURCE_FEA": "A9300989", "SOURCE_DAT": "{092B06A5-744D-461B-BB91-876E463350D0}", "SOURCE_D_1": "TNMC VWE DB Build - Vol Update Schools", "SOURCE_ORI": "Oak Ridge National Laboratory, Geographic Information Sciences and Technology Group", "DATA_SECUR": 5, "DISTRIBUTI": "E4", "LOADDATE": "2014\/06\/25", "FTYPE": 730, "FCODE": 73003, "NAME": "Saint Stephen's Episcopal School", "ISLANDMARK": 2, "POINTLOCAT": 1, "ADMINTYPE": 0, "ADDRESSBUI": null, "ADDRESS": "6000 Farm Market 2337", "CITY": "Wimberley", "STATE": "TX", "ZIPCODE": "78676", "GNIS_ID": null, "FOOT_ID": null, "COMPLEX_ID": null, "FID_txdot_": 59, "CNTY_NM": "Hays", "CNTY_NBR": 106, "FIPS": 48209, "Shape_Leng": 1.8032264710599999 }, "geometry": { "type": "Point", "coordinates": [ -98.03631427988006, 30.032232940897529 ] } },
{ "type": "Feature", "properties": { "OBJECTID": 6047, "FID_Struct": 14722, "PERMANENT_": "{B4D4B633-74B7-46C2-8F0B-70C567AD173C}", "SOURCE_FEA": null, "SOURCE_DAT": "{43CAF7AD-177F-413D-90DA-C94E9789FEC8}", "SOURCE_D_1": "NSD TNMC VWE Database Build - Reviewed features", "SOURCE_ORI": "U.S. Geological Survey", "DATA_SECUR": 5, "DISTRIBUTI": "E4", "LOADDATE": "2013\/12\/04", "FTYPE": 740, "FCODE": 74034, "NAME": "Hays County Sheriff's Office Driftwood Substation", "ISLANDMARK": 2, "POINTLOCAT": 4, "ADMINTYPE": 5, "ADDRESSBUI": null, "ADDRESS": "Farm to Market Road 150 at Farm to Market Road 3237", "CITY": "Driftwood", "STATE": "TX", "ZIPCODE": "78619", "GNIS_ID": "2739204", "FOOT_ID": null, "COMPLEX_ID": null, "FID_txdot_": 59, "CNTY_NM": "Hays", "CNTY_NBR": 106, "FIPS": 48209, "Shape_Leng": 1.8032264710599999 }, "geometry": { "type": "Point", "coordinates": [ -97.988965950817942, 30.048045771695058 ] } },
{ "type": "Feature", "properties": { "OBJECTID": 6056, "FID_Struct": 4707, "PERMANENT_": "28283beb-b3fe-47be-867e-62c0a5910f86", "SOURCE_FEA": "10410434", "SOURCE_DAT": "4f7eb305-b36a-4bae-8116-c78c4d4bb1d4", "SOURCE_D_1": "730 TNMC Update 10\/20\/2016 13:24:06", "SOURCE_ORI": "Oak Ridge National Laboratory, Geographic Information Sciences and Technology Group", "DATA_SECUR": 5, "DISTRIBUTI": "E4", "LOADDATE": "2016\/10\/20", "FTYPE": 740, "FCODE": 74026, "NAME": "Wimberley Volunteer Fire Department Rolling Oaks Station", "ISLANDMARK": 2, "POINTLOCAT": 4, "ADMINTYPE": 0, "ADDRESSBUI": null, "ADDRESS": "103 Limestone Lane", "CITY": "Driftwood", "STATE": "TX", "ZIPCODE": "78619", "GNIS_ID": "2552493", "FOOT_ID": null, "COMPLEX_ID": null, "FID_txdot_": 59, "CNTY_NM": "Hays", "CNTY_NBR": 106, "FIPS": 48209, "Shape_Leng": 1.8032264710599999 }, "geometry": { "type": "Point", "coordinates": [ -98.022232000106669, 30.050709329771792 ] } },
{ "type": "Feature", "properties": { "OBJECTID": 6108, "FID_Struct": 6743, "PERMANENT_": "{C672F8BE-60DA-443F-B52A-4E4B3C43C9F6}", "SOURCE_FEA": "480001006346", "SOURCE_DAT": "{092B06A5-744D-461B-BB91-876E463350D0}", "SOURCE_D_1": "TNMC VWE DB Build - Vol Update Schools", "SOURCE_ORI": "Oak Ridge National Laboratory, Geographic Information Sciences and Technology Group", "DATA_SECUR": 5, "DISTRIBUTI": "E4", "LOADDATE": "2016\/08\/12", "FTYPE": 730, "FCODE": 73003, "NAME": "Tom Green Elementary School", "ISLANDMARK": 2, "POINTLOCAT": 1, "ADMINTYPE": 0, "ADDRESSBUI": null, "ADDRESS": "1301 Old Goforth Road", "CITY": "Buda", "STATE": "TX", "ZIPCODE": "78610", "GNIS_ID": null, "FOOT_ID": null, "COMPLEX_ID": null, "FID_txdot_": 59, "CNTY_NM": "Hays", "CNTY_NBR": 106, "FIPS": 48209, "Shape_Leng": 1.8032264710599999 }, "geometry": { "type": "Point", "coordinates": [ -97.818612000843132, 30.064049600508724 ] } },
{ "type": "Feature", "properties": { "OBJECTID": 6110, "FID_Struct": 10796, "PERMANENT_": "870045e7-8014-47d0-8377-1461739881de", "SOURCE_FEA": "10410305", "SOURCE_DAT": "{43CAF7AD-177F-413D-90DA-C94E9789FEC8}", "SOURCE_D_1": "NSD TNMC VWE Database Build - Reviewed features", "SOURCE_ORI": "U.S. Geological Survey", "DATA_SECUR": 5, "DISTRIBUTI": "E4", "LOADDATE": "2009\/12\/24", "FTYPE": 740, "FCODE": 74026, "NAME": "Buda Volunteer Fire Department Station 2", "ISLANDMARK": 2, "POINTLOCAT": 1, "ADMINTYPE": 0, "ADDRESSBUI": null, "ADDRESS": "Old West Trail", "CITY": "Buda", "STATE": "TX", "ZIPCODE": "78610", "GNIS_ID": "2552494", "FOOT_ID": null, "COMPLEX_ID": null, "FID_txdot_": 59, "CNTY_NM": "Hays", "CNTY_NBR": 106, "FIPS": 48209, "Shape_Leng": 1.8032264710599999 }, "geometry": { "type": "Point", "coordinates": [ -97.816198900358927, 30.064495501466297 ] } },
{ "type": "Feature", "properties": { "OBJECTID": 6132, "FID_Struct": 659, "PERMANENT_": "{51733A01-2DE8-4E9A-8C75-B8A8461AB6BD}", "SOURCE_FEA": "480007111445", "SOURCE_DAT": "{CC19ABE0-361F-4846-B852-AA57C04368C8}", "SOURCE_D_1": "NSD TNMC VWE Database Build - Reviewed Schools", "SOURCE_ORI": "Oak Ridge National Laboratory, Geographic Information Sciences and Technology Group", "DATA_SECUR": 5, "DISTRIBUTI": "E4", "LOADDATE": "2011\/12\/20", "FTYPE": 730, "FCODE": 73004, "NAME": "OLYMPIC HILLS", "ISLANDMARK": 2, "POINTLOCAT": 1, "ADMINTYPE": 0, "ADDRESSBUI": null, "ADDRESS": "222 PARK 35 COVE N", "CITY": "Buda", "STATE": "TX", "ZIPCODE": "78713", "GNIS_ID": null, "FOOT_ID": null, "COMPLEX_ID": null, "FID_txdot_": 59, "CNTY_NM": "Hays", "CNTY_NBR": 106, "FIPS": 48209, "Shape_Leng": 1.8032264710599999 }, "geometry": { "type": "Point", "coordinates": [ -97.832067021475837, 30.069448487957402 ] } },
{ "type": "Feature", "properties": { "OBJECTID": 6189, "FID_Struct": 14765, "PERMANENT_": "{0E2841B3-CE1D-41AF-9B02-61B44FDE22B4}", "SOURCE_FEA": null, "SOURCE_DAT": "{43CAF7AD-177F-413D-90DA-C94E9789FEC8}", "SOURCE_D_1": "NSD TNMC VWE Database Build - Reviewed features", "SOURCE_ORI": "U.S. Geological Survey", "DATA_SECUR": 5, "DISTRIBUTI": "E4", "LOADDATE": "2013\/12\/04", "FTYPE": 740, "FCODE": 74034, "NAME": "Hays County Sheriff's Office Buda Substation", "ISLANDMARK": 2, "POINTLOCAT": 1, "ADMINTYPE": 5, "ADDRESSBUI": null, "ADDRESS": "500 Jack C Hays Trail", "CITY": "Buda", "STATE": "TX", "ZIPCODE": "78610", "GNIS_ID": "2739416", "FOOT_ID": null, "COMPLEX_ID": null, "FID_txdot_": 59, "CNTY_NM": "Hays", "CNTY_NBR": 106, "FIPS": 48209, "Shape_Leng": 1.8032264710599999 }, "geometry": { "type": "Point", "coordinates": [ -97.849495315256547, 30.077866620748011 ] } },
{ "type": "Feature", "properties": { "OBJECTID": 6192, "FID_Struct": 2744, "PERMANENT_": "eca54e84-7e03-4f94-a85e-ab7377d73db3", "SOURCE_FEA": "10410304", "SOURCE_DAT": "{43CAF7AD-177F-413D-90DA-C94E9789FEC8}", "SOURCE_D_1": "NSD TNMC VWE Database Build - Reviewed features", "SOURCE_ORI": "U.S. Geological Survey", "DATA_SECUR": 5, "DISTRIBUTI": "E4", "LOADDATE": "2009\/12\/24", "FTYPE": 740, "FCODE": 74026, "NAME": "Buda Volunteer Fire Department Station 1", "ISLANDMARK": 2, "POINTLOCAT": 4, "ADMINTYPE": 0, "ADDRESSBUI": null, "ADDRESS": "209 Farm To Market Road 2270", "CITY": "Buda", "STATE": "TX", "ZIPCODE": "78610", "GNIS_ID": "2552496", "FOOT_ID": null, "COMPLEX_ID": null, "FID_txdot_": 59, "CNTY_NM": "Hays", "CNTY_NBR": 106, "FIPS": 48209, "Shape_Leng": 1.8032264710599999 }, "geometry": { "type": "Point", "coordinates": [ -97.846833300416449, 30.078651501365755 ] } },
{ "type": "Feature", "properties": { "OBJECTID": 6217, "FID_Struct": 658, "PERMANENT_": "{22E6F17E-E87F-4CA5-A3B9-5070047CF9AB}", "SOURCE_FEA": "480001007343", "SOURCE_DAT": "{092B06A5-744D-461B-BB91-876E463350D0}", "SOURCE_D_1": "TNMC VWE DB Build - Vol Update Schools", "SOURCE_ORI": "Oak Ridge National Laboratory, Geographic Information Sciences and Technology Group", "DATA_SECUR": 5, "DISTRIBUTI": "E4", "LOADDATE": "2014\/06\/25", "FTYPE": 730, "FCODE": 73003, "NAME": "Buda Elementary School", "ISLANDMARK": 2, "POINTLOCAT": 1, "ADMINTYPE": 0, "ADDRESSBUI": null, "ADDRESS": "300 San Marcos", "CITY": "Buda", "STATE": "TX", "ZIPCODE": "78610", "GNIS_ID": null, "FOOT_ID": null, "COMPLEX_ID": null, "FID_txdot_": 59, "CNTY_NM": "Hays", "CNTY_NBR": 106, "FIPS": 48209, "Shape_Leng": 1.8032264710599999 }, "geometry": { "type": "Point", "coordinates": [ -97.845028000441857, 30.084044028808933 ] } },
{ "type": "Feature", "properties": { "OBJECTID": 6236, "FID_Struct": 12761, "PERMANENT_": "{2C6BF6CF-254B-4125-88E8-6125D1741C09}", "SOURCE_FEA": "480001008838", "SOURCE_DAT": "{092B06A5-744D-461B-BB91-876E463350D0}", "SOURCE_D_1": "TNMC VWE DB Build - Vol Update Schools", "SOURCE_ORI": "Oak Ridge National Laboratory, Geographic Information Sciences and Technology Group", "DATA_SECUR": 5, "DISTRIBUTI": "E4", "LOADDATE": "2014\/06\/25", "FTYPE": 730, "FCODE": 73003, "NAME": "Elm Grove Elementary School", "ISLANDMARK": 2, "POINTLOCAT": 1, "ADMINTYPE": 0, "ADDRESSBUI": null, "ADDRESS": "801 Farm To Market Road 1626", "CITY": "Buda", "STATE": "TX", "ZIPCODE": "78610", "GNIS_ID": null, "FOOT_ID": null, "COMPLEX_ID": null, "FID_txdot_": 59, "CNTY_NM": "Hays", "CNTY_NBR": 106, "FIPS": 48209, "Shape_Leng": 1.8032264710599999 }, "geometry": { "type": "Point", "coordinates": [ -97.873260000148832, 30.089138000218611 ] } },
{ "type": "Feature", "properties": { "OBJECTID": 6239, "FID_Struct": 4612, "PERMANENT_": "{FCAA66C0-87E3-46D0-9134-B9136378529D}", "SOURCE_FEA": null, "SOURCE_DAT": "{43CAF7AD-177F-413D-90DA-C94E9789FEC8}", "SOURCE_D_1": "NSD TNMC VWE Database Build - Reviewed features", "SOURCE_ORI": "U.S. Geological Survey", "DATA_SECUR": 5, "DISTRIBUTI": "E4", "LOADDATE": "2013\/12\/16", "FTYPE": 740, "FCODE": 74034, "NAME": "Blanco Police Department", "ISLANDMARK": 2, "POINTLOCAT": 1, "ADMINTYPE": 6, "ADDRESSBUI": null, "ADDRESS": "305 Blanco Avenue", "CITY": "Blanco", "STATE": "TX", "ZIPCODE": "78606", "GNIS_ID": "2750568", "FOOT_ID": null, "COMPLEX_ID": null, "FID_txdot_": 64, "CNTY_NM": "Blanco", "CNTY_NBR": 16, "FIPS": 48031, "Shape_Leng": 1.68359656502 }, "geometry": { "type": "Point", "coordinates": [ -98.416507296474492, 30.089615068081002 ] } },
{ "type": "Feature", "properties": { "OBJECTID": 6256, "FID_Struct": 655, "PERMANENT_": "{DA83ED39-CA52-4C23-8032-53F6588FB71C}", "SOURCE_FEA": "480001006990", "SOURCE_DAT": "{CC19ABE0-361F-4846-B852-AA57C04368C8}", "SOURCE_D_1": "NSD TNMC VWE Database Build - Reviewed Schools", "SOURCE_ORI": "Oak Ridge National Laboratory, Geographic Information Sciences and Technology Group", "DATA_SECUR": 5, "DISTRIBUTI": "E4", "LOADDATE": "2011\/12\/20", "FTYPE": 730, "FCODE": 73002, "NAME": "ALTER IMPACT CTR", "ISLANDMARK": 2, "POINTLOCAT": 1, "ADMINTYPE": 0, "ADDRESSBUI": null, "ADDRESS": "4125B F M 967", "CITY": "Buda", "STATE": "TX", "ZIPCODE": "78610", "GNIS_ID": null, "FOOT_ID": null, "COMPLEX_ID": null, "FID_txdot_": 59, "CNTY_NM": "Hays", "CNTY_NBR": 106, "FIPS": 48209, "Shape_Leng": 1.8032264710599999 }, "geometry": { "type": "Point", "coordinates": [ -97.891227843989782, 30.094334411603882 ] } },
{ "type": "Feature", "properties": { "OBJECTID": 6257, "FID_Struct": 2740, "PERMANENT_": "{6A9BAC8D-D629-430B-995E-FDDCD1B59D8A}", "SOURCE_FEA": "483897008833", "SOURCE_DAT": "{CC19ABE0-361F-4846-B852-AA57C04368C8}", "SOURCE_D_1": "NSD TNMC VWE Database Build - Reviewed Schools", "SOURCE_ORI": "Oak Ridge National Laboratory, Geographic Information Sciences and Technology Group", "DATA_SECUR": 5, "DISTRIBUTI": "E4", "LOADDATE": "2011\/12\/20", "FTYPE": 730, "FCODE": 73002, "NAME": "HAYS CO JUVENILE JUSTICE ALTERNATIVE CENTER", "ISLANDMARK": 2, "POINTLOCAT": 1, "ADMINTYPE": 0, "ADDRESSBUI": null, "ADDRESS": "4125 B FM 967", "CITY": "Buda", "STATE": "TX", "ZIPCODE": "78667", "GNIS_ID": null, "FOOT_ID": null, "COMPLEX_ID": null, "FID_txdot_": 59, "CNTY_NM": "Hays", "CNTY_NBR": 106, "FIPS": 48209, "Shape_Leng": 1.8032264710599999 }, "geometry": { "type": "Point", "coordinates": [ -97.891227843989782, 30.094334411603882 ] } },
{ "type": "Feature", "properties": { "OBJECTID": 6260, "FID_Struct": 8769, "PERMANENT_": "{98991177-7DD1-4E9C-BC26-2DDB25260AF0}", "SOURCE_FEA": "480001008834", "SOURCE_DAT": "{CC19ABE0-361F-4846-B852-AA57C04368C8}", "SOURCE_D_1": "NSD TNMC VWE Database Build - Reviewed Schools", "SOURCE_ORI": "Oak Ridge National Laboratory, Geographic Information Sciences and Technology Group", "DATA_SECUR": 5, "DISTRIBUTI": "E4", "LOADDATE": "2011\/12\/20", "FTYPE": 730, "FCODE": 73005, "NAME": "HAYS CO JUVENILE JUSTICE ALT ED PROG", "ISLANDMARK": 2, "POINTLOCAT": 1, "ADMINTYPE": 0, "ADDRESSBUI": null, "ADDRESS": "4125 B FM 967", "CITY": "Buda", "STATE": "TX", "ZIPCODE": "78610", "GNIS_ID": null, "FOOT_ID": null, "COMPLEX_ID": null, "FID_txdot_": 59, "CNTY_NM": "Hays", "CNTY_NBR": 106, "FIPS": 48209, "Shape_Leng": 1.8032264710599999 }, "geometry": { "type": "Point", "coordinates": [ -97.891142768124212, 30.094627189493224 ] } },
{ "type": "Feature", "properties": { "OBJECTID": 6275, "FID_Struct": 6740, "PERMANENT_": "{4D059106-20D3-47F0-9D86-E5D649081485}", "SOURCE_FEA": "480001008836", "SOURCE_DAT": "{092B06A5-744D-461B-BB91-876E463350D0}", "SOURCE_D_1": "TNMC VWE DB Build - Vol Update Schools", "SOURCE_ORI": "Oak Ridge National Laboratory, Geographic Information Sciences and Technology Group", "DATA_SECUR": 5, "DISTRIBUTI": "E4", "LOADDATE": "2014\/06\/25", "FTYPE": 730, "FCODE": 73004, "NAME": "Dahlstrom Middle School", "ISLANDMARK": 2, "POINTLOCAT": 1, "ADMINTYPE": 0, "ADDRESSBUI": null, "ADDRESS": "3600 Farm To Market 967", "CITY": "Buda", "STATE": "TX", "ZIPCODE": "78610", "GNIS_ID": null, "FOOT_ID": null, "COMPLEX_ID": null, "FID_txdot_": 59, "CNTY_NM": "Hays", "CNTY_NBR": 106, "FIPS": 48209, "Shape_Leng": 1.8032264710599999 }, "geometry": { "type": "Point", "coordinates": [ -97.882167258911807, 30.097272298877556 ] } },
{ "type": "Feature", "properties": { "OBJECTID": 6279, "FID_Struct": 2533, "PERMANENT_": "957b61ca-a24c-41ac-b927-b7da515d6ade", "SOURCE_FEA": "10409923", "SOURCE_DAT": "{43CAF7AD-177F-413D-90DA-C94E9789FEC8}", "SOURCE_D_1": "NSD TNMC VWE Database Build - Reviewed features", "SOURCE_ORI": "U.S. Geological Survey", "DATA_SECUR": 5, "DISTRIBUTI": "E4", "LOADDATE": "2009\/07\/06", "FTYPE": 740, "FCODE": 74026, "NAME": "Blanco Volunteer Fire Department", "ISLANDMARK": 2, "POINTLOCAT": 1, "ADMINTYPE": 0, "ADDRESSBUI": null, "ADDRESS": "503 Pecan Street", "CITY": "Blanco", "STATE": "TX", "ZIPCODE": "78606", "GNIS_ID": "2551124", "FOOT_ID": null, "COMPLEX_ID": null, "FID_txdot_": 64, "CNTY_NM": "Blanco", "CNTY_NBR": 16, "FIPS": 48031, "Shape_Leng": 1.68359656502 }, "geometry": { "type": "Point", "coordinates": [ -98.42086630053933, 30.098919201260173 ] } },
{ "type": "Feature", "properties": { "OBJECTID": 6284, "FID_Struct": 12611, "PERMANENT_": "{06FFAF15-D132-40CE-8E02-B3B7FFBC5D1B}", "SOURCE_FEA": "481032000515", "SOURCE_DAT": "{CC19ABE0-361F-4846-B852-AA57C04368C8}", "SOURCE_D_1": "NSD TNMC VWE Database Build - Reviewed Schools", "SOURCE_ORI": "Oak Ridge National Laboratory, Geographic Information Sciences and Technology Group", "DATA_SECUR": 5, "DISTRIBUTI": "E4", "LOADDATE": "2011\/12\/20", "FTYPE": 730, "FCODE": 73005, "NAME": "BLANCO H S", "ISLANDMARK": 2, "POINTLOCAT": 1, "ADMINTYPE": 0, "ADDRESSBUI": null, "ADDRESS": "1215 FOURTH ST", "CITY": "Blanco", "STATE": "TX", "ZIPCODE": "78606", "GNIS_ID": null, "FOOT_ID": null, "COMPLEX_ID": null, "FID_txdot_": 64, "CNTY_NM": "Blanco", "CNTY_NBR": 16, "FIPS": 48031, "Shape_Leng": 1.68359656502 }, "geometry": { "type": "Point", "coordinates": [ -98.431324041771063, 30.099654961807119 ] } },
{ "type": "Feature", "properties": { "OBJECTID": 6305, "FID_Struct": 10628, "PERMANENT_": "{4A162CEF-1C2D-4344-AD5B-602A18CFFB73}", "SOURCE_FEA": "481032000514", "SOURCE_DAT": "{CC19ABE0-361F-4846-B852-AA57C04368C8}", "SOURCE_D_1": "NSD TNMC VWE Database Build - Reviewed Schools", "SOURCE_ORI": "Oak Ridge National Laboratory, Geographic Information Sciences and Technology Group", "DATA_SECUR": 5, "DISTRIBUTI": "E4", "LOADDATE": "2011\/12\/20", "FTYPE": 730, "FCODE": 73002, "NAME": "BLANCO EL", "ISLANDMARK": 2, "POINTLOCAT": 1, "ADMINTYPE": 0, "ADDRESSBUI": null, "ADDRESS": "814 ELEVENTH ST", "CITY": "Blanco", "STATE": "TX", "ZIPCODE": "78606", "GNIS_ID": null, "FOOT_ID": null, "COMPLEX_ID": null, "FID_txdot_": 64, "CNTY_NM": "Blanco", "CNTY_NBR": 16, "FIPS": 48031, "Shape_Leng": 1.68359656502 }, "geometry": { "type": "Point", "coordinates": [ -98.421757369506963, 30.105346217054318 ] } },
{ "type": "Feature", "properties": { "OBJECTID": 6310, "FID_Struct": 14578, "PERMANENT_": "{13B6175F-9ED8-4894-B4B8-7BB077F7D293}", "SOURCE_FEA": "481032000419", "SOURCE_DAT": "{CC19ABE0-361F-4846-B852-AA57C04368C8}", "SOURCE_D_1": "NSD TNMC VWE Database Build - Reviewed Schools", "SOURCE_ORI": "Oak Ridge National Laboratory, Geographic Information Sciences and Technology Group", "DATA_SECUR": 5, "DISTRIBUTI": "E4", "LOADDATE": "2011\/12\/20", "FTYPE": 730, "FCODE": 73004, "NAME": "BLANCO MIDDLE", "ISLANDMARK": 2, "POINTLOCAT": 1, "ADMINTYPE": 0, "ADDRESSBUI": null, "ADDRESS": "1500 ROCKY RD", "CITY": "Blanco", "STATE": "TX", "ZIPCODE": "78606", "GNIS_ID": null, "FOOT_ID": null, "COMPLEX_ID": null, "FID_txdot_": 64, "CNTY_NM": "Blanco", "CNTY_NBR": 16, "FIPS": 48031, "Shape_Leng": 1.68359656502 }, "geometry": { "type": "Point", "coordinates": [ -98.430272138947998, 30.106422205520403 ] } },
{ "type": "Feature", "properties": { "OBJECTID": 6388, "FID_Struct": 12764, "PERMANENT_": "a8a6d6bc-d2be-41c7-9fcd-1448af2aa377", "SOURCE_FEA": "10139424", "SOURCE_DAT": "{43CAF7AD-177F-413D-90DA-C94E9789FEC8}", "SOURCE_D_1": "NSD TNMC VWE Database Build - Reviewed features", "SOURCE_ORI": "U.S. Geological Survey", "DATA_SECUR": 5, "DISTRIBUTI": "E4", "LOADDATE": "2009\/12\/24", "FTYPE": 740, "FCODE": 74026, "NAME": "Manchaca Volunteer Fire Department Station 6", "ISLANDMARK": 2, "POINTLOCAT": 4, "ADMINTYPE": 0, "ADDRESSBUI": null, "ADDRESS": "2900 Chaparral Road", "CITY": "Manchaca", "STATE": "TX", "ZIPCODE": "78652", "GNIS_ID": "2552659", "FOOT_ID": null, "COMPLEX_ID": null, "FID_txdot_": 59, "CNTY_NM": "Hays", "CNTY_NBR": 106, "FIPS": 48209, "Shape_Leng": 1.8032264710599999 }, "geometry": { "type": "Point", "coordinates": [ -97.893712999954971, 30.136189701393675 ] } },
{ "type": "Feature", "properties": { "OBJECTID": 6426, "FID_Struct": 10772, "PERMANENT_": "{47FACD8F-77C6-4D00-99D8-C41746E36633}", "SOURCE_FEA": "480007108932", "SOURCE_DAT": "{CC19ABE0-361F-4846-B852-AA57C04368C8}", "SOURCE_D_1": "NSD TNMC VWE Database Build - Reviewed Schools", "SOURCE_ORI": "Oak Ridge National Laboratory, Geographic Information Sciences and Technology Group", "DATA_SECUR": 5, "DISTRIBUTI": "E4", "LOADDATE": "2011\/12\/20", "FTYPE": 730, "FCODE": 73002, "NAME": "PATHFINDER CAMP", "ISLANDMARK": 2, "POINTLOCAT": 1, "ADMINTYPE": 0, "ADDRESSBUI": null, "ADDRESS": "20800 FM 150 WEST", "CITY": "Driftwood", "STATE": "TX", "ZIPCODE": "78713", "GNIS_ID": null, "FOOT_ID": null, "COMPLEX_ID": null, "FID_txdot_": 59, "CNTY_NM": "Hays", "CNTY_NBR": 106, "FIPS": 48209, "Shape_Leng": 1.8032264710599999 }, "geometry": { "type": "Point", "coordinates": [ -98.060525648140128, 30.150885022026216 ] } },
{ "type": "Feature", "properties": { "OBJECTID": 6427, "FID_Struct": 14725, "PERMANENT_": "2bb9b70d-fc35-4e14-bde3-9a15c06f67fc", "SOURCE_FEA": "10410308", "SOURCE_DAT": "{CC44F99C-6658-4584-B606-926E498D5C82}", "SOURCE_D_1": "TNMC VWE DB Build - Vol Update", "SOURCE_ORI": "U.S. Geological Survey", "DATA_SECUR": 5, "DISTRIBUTI": "E4", "LOADDATE": "2015\/12\/09", "FTYPE": 740, "FCODE": 74026, "NAME": "Driftwood Volunteer Fire Department", "ISLANDMARK": 2, "POINTLOCAT": 1, "ADMINTYPE": 0, "ADDRESSBUI": null, "ADDRESS": "15840 Farm To Market Road 1826", "CITY": "Austin", "STATE": "TX", "ZIPCODE": "78619", "GNIS_ID": "2552184", "FOOT_ID": null, "COMPLEX_ID": null, "FID_txdot_": 59, "CNTY_NM": "Hays", "CNTY_NBR": 106, "FIPS": 48209, "Shape_Leng": 1.8032264710599999 }, "geometry": { "type": "Point", "coordinates": [ -97.975685995812, 30.151474106744672 ] } },
{ "type": "Feature", "properties": { "OBJECTID": 6551, "FID_Struct": 10730, "PERMANENT_": "ec383df7-9084-4c4c-bc8b-35c12ccd15a3", "SOURCE_FEA": "10412920", "SOURCE_DAT": "{43CAF7AD-177F-413D-90DA-C94E9789FEC8}", "SOURCE_D_1": "NSD TNMC VWE Database Build - Reviewed features", "SOURCE_ORI": "U.S. Geological Survey", "DATA_SECUR": 5, "DISTRIBUTI": "E4", "LOADDATE": "2009\/12\/24", "FTYPE": 740, "FCODE": 74026, "NAME": "Henly Volunteer Fire Department", "ISLANDMARK": 2, "POINTLOCAT": 4, "ADMINTYPE": 0, "ADDRESSBUI": null, "ADDRESS": "7520 Creek Road", "CITY": "Dripping Springs", "STATE": "TX", "ZIPCODE": "78620", "GNIS_ID": "2552240", "FOOT_ID": null, "COMPLEX_ID": null, "FID_txdot_": 59, "CNTY_NM": "Hays", "CNTY_NBR": 106, "FIPS": 48209, "Shape_Leng": 1.8032264710599999 }, "geometry": { "type": "Point", "coordinates": [ -98.212443603189683, 30.188500480512801 ] } },
{ "type": "Feature", "properties": { "OBJECTID": 6561, "FID_Struct": 14724, "PERMANENT_": "{C71770CF-E10C-45DF-AA37-1FEB03CC8A46}", "SOURCE_FEA": "480000811280", "SOURCE_DAT": "{092B06A5-744D-461B-BB91-876E463350D0}", "SOURCE_D_1": "TNMC VWE DB Build - Vol Update Schools", "SOURCE_ORI": "Oak Ridge National Laboratory, Geographic Information Sciences and Technology Group", "DATA_SECUR": 5, "DISTRIBUTI": "E4", "LOADDATE": "2016\/08\/12", "FTYPE": 730, "FCODE": 73003, "NAME": "Rooster Springs Elementary School", "ISLANDMARK": 2, "POINTLOCAT": 1, "ADMINTYPE": 0, "ADDRESSBUI": null, "ADDRESS": "1001 BELTERRA DR", "CITY": "AUSTIN", "STATE": "TX", "ZIPCODE": "78737", "GNIS_ID": null, "FOOT_ID": null, "COMPLEX_ID": null, "FID_txdot_": 59, "CNTY_NM": "Hays", "CNTY_NBR": 106, "FIPS": 48209, "Shape_Leng": 1.8032264710599999 }, "geometry": { "type": "Point", "coordinates": [ -97.982913999981065, 30.19217300058358 ] } },
{ "type": "Feature", "properties": { "OBJECTID": 6564, "FID_Struct": 14684, "PERMANENT_": "{45024AED-930E-43E9-8213-A273F5112C28}", "SOURCE_FEA": "480000806989", "SOURCE_DAT": "{092B06A5-744D-461B-BB91-876E463350D0}", "SOURCE_D_1": "TNMC VWE DB Build - Vol Update Schools", "SOURCE_ORI": "Oak Ridge National Laboratory, Geographic Information Sciences and Technology Group", "DATA_SECUR": 5, "DISTRIBUTI": "E4", "LOADDATE": "2016\/08\/12", "FTYPE": 730, "FCODE": 73003, "NAME": "WALNUT SPRINGS ELEMENTARY SCHOOL", "ISLANDMARK": 2, "POINTLOCAT": 1, "ADMINTYPE": 0, "ADDRESSBUI": null, "ADDRESS": "300 SPORTSPLEX DR", "CITY": "Dripping Springs", "STATE": "TX", "ZIPCODE": "78620", "GNIS_ID": null, "FOOT_ID": null, "COMPLEX_ID": null, "FID_txdot_": 59, "CNTY_NM": "Hays", "CNTY_NBR": 106, "FIPS": 48209, "Shape_Leng": 1.8032264710599999 }, "geometry": { "type": "Point", "coordinates": [ -98.094845685779717, 30.194634126663686 ] } },
{ "type": "Feature", "properties": { "OBJECTID": 6568, "FID_Struct": 14683, "PERMANENT_": "{30AD9F70-219B-49A8-A7D8-3FC86A6B327F}", "SOURCE_FEA": null, "SOURCE_DAT": "{CC44F99C-6658-4584-B606-926E498D5C82}", "SOURCE_D_1": "TNMC VWE DB Build - Vol Update", "SOURCE_ORI": "U.S. Geological Survey", "DATA_SECUR": 5, "DISTRIBUTI": "E4", "LOADDATE": "2016\/08\/12", "FTYPE": 740, "FCODE": 74034, "NAME": "Hays County Sheriff's Office Dripping Springs Substation", "ISLANDMARK": 2, "POINTLOCAT": 1, "ADMINTYPE": 5, "ADDRESSBUI": null, "ADDRESS": "195 Roger Hanks Parkway", "CITY": "Dripping Springs", "STATE": "TX", "ZIPCODE": "78620", "GNIS_ID": "2739238", "FOOT_ID": null, "COMPLEX_ID": null, "FID_txdot_": 59, "CNTY_NM": "Hays", "CNTY_NBR": 106, "FIPS": 48209, "Shape_Leng": 1.8032264710599999 }, "geometry": { "type": "Point", "coordinates": [ -98.106033520930225, 30.195551364104233 ] } },
{ "type": "Feature", "properties": { "OBJECTID": 6570, "FID_Struct": 4668, "PERMANENT_": "b2a8e390-2881-4143-8e4c-4bad5c4d8479", "SOURCE_FEA": "10410416", "SOURCE_DAT": "{CC44F99C-6658-4584-B606-926E498D5C82}", "SOURCE_D_1": "TNMC VWE DB Build - Vol Update", "SOURCE_ORI": "U.S. Geological Survey", "DATA_SECUR": 5, "DISTRIBUTI": "E4", "LOADDATE": "2016\/08\/12", "FTYPE": 740, "FCODE": 74026, "NAME": "North Hays County Emergency Services District 6", "ISLANDMARK": 2, "POINTLOCAT": 4, "ADMINTYPE": 0, "ADDRESSBUI": null, "ADDRESS": "111 Ems Drive", "CITY": "Dripping Springs", "STATE": "TX", "ZIPCODE": "78620", "GNIS_ID": "2552490", "FOOT_ID": null, "COMPLEX_ID": null, "FID_txdot_": 59, "CNTY_NM": "Hays", "CNTY_NBR": 106, "FIPS": 48209, "Shape_Leng": 1.8032264710599999 }, "geometry": { "type": "Point", "coordinates": [ -98.096370899996998, 30.195832101870053 ] } },
{ "type": "Feature", "properties": { "OBJECTID": 6573, "FID_Struct": 2664, "PERMANENT_": "feb69b31-14cb-49e0-9aa6-c96c76648182", "SOURCE_FEA": "9999999999", "SOURCE_DAT": "{CC44F99C-6658-4584-B606-926E498D5C82}", "SOURCE_D_1": "TNMC VWE DB Build - Vol Update", "SOURCE_ORI": "U.S. Geological Survey", "DATA_SECUR": 5, "DISTRIBUTI": "E4", "LOADDATE": "2016\/08\/12", "FTYPE": 740, "FCODE": 74026, "NAME": "North Hays County Volunteer Fire Department Station 71", "ISLANDMARK": 2, "POINTLOCAT": 4, "ADMINTYPE": 0, "ADDRESSBUI": null, "ADDRESS": "400 Sportsplex Drive", "CITY": "Dripping Springs", "STATE": "TX", "ZIPCODE": "78620", "GNIS_ID": "2552249", "FOOT_ID": null, "COMPLEX_ID": null, "FID_txdot_": 59, "CNTY_NM": "Hays", "CNTY_NBR": 106, "FIPS": 48209, "Shape_Leng": 1.8032264710599999 }, "geometry": { "type": "Point", "coordinates": [ -98.096991300008426, 30.196067500314939 ] } },
{ "type": "Feature", "properties": { "OBJECTID": 6577, "FID_Struct": 4667, "PERMANENT_": "{B049040A-805A-4CE1-A4FC-8320D0646216}", "SOURCE_FEA": "480000806094", "SOURCE_DAT": "{092B06A5-744D-461B-BB91-876E463350D0}", "SOURCE_D_1": "TNMC VWE DB Build - Vol Update Schools", "SOURCE_ORI": "Oak Ridge National Laboratory, Geographic Information Sciences and Technology Group", "DATA_SECUR": 5, "DISTRIBUTI": "E4", "LOADDATE": "2016\/08\/12", "FTYPE": 730, "FCODE": 73005, "NAME": "DRIPPING SPRINGS HIGH SCHOOL", "ISLANDMARK": 2, "POINTLOCAT": 1, "ADMINTYPE": 0, "ADDRESSBUI": null, "ADDRESS": "940 Highway 290 West", "CITY": "DRIPPING SPRINGS", "STATE": "TX", "ZIPCODE": "78620", "GNIS_ID": null, "FOOT_ID": null, "COMPLEX_ID": null, "FID_txdot_": 59, "CNTY_NM": "Hays", "CNTY_NBR": 106, "FIPS": 48209, "Shape_Leng": 1.8032264710599999 }, "geometry": { "type": "Point", "coordinates": [ -98.101446400231168, 30.197022000265179 ] } },
{ "type": "Feature", "properties": { "OBJECTID": 6594, "FID_Struct": 4666, "PERMANENT_": "{DC46C723-3D4C-498F-821C-859A402A9960}", "SOURCE_FEA": "480000801508", "SOURCE_DAT": "{092B06A5-744D-461B-BB91-876E463350D0}", "SOURCE_D_1": "TNMC VWE DB Build - Vol Update Schools", "SOURCE_ORI": "Oak Ridge National Laboratory, Geographic Information Sciences and Technology Group", "DATA_SECUR": 5, "DISTRIBUTI": "E4", "LOADDATE": "2016\/08\/12", "FTYPE": 730, "FCODE": 73004, "NAME": "DRIPPING SPRINGS MIDDLE SCHOOL", "ISLANDMARK": 2, "POINTLOCAT": 1, "ADMINTYPE": 0, "ADDRESSBUI": null, "ADDRESS": "111 Tiger Lane", "CITY": "DRIPPING SPRINGS", "STATE": "TX", "ZIPCODE": "78620", "GNIS_ID": null, "FOOT_ID": null, "COMPLEX_ID": null, "FID_txdot_": 59, "CNTY_NM": "Hays", "CNTY_NBR": 106, "FIPS": 48209, "Shape_Leng": 1.8032264710599999 }, "geometry": { "type": "Point", "coordinates": [ -98.115499999725159, 30.20209500038402 ] } },
{ "type": "Feature", "properties": { "OBJECTID": 6641, "FID_Struct": 6705, "PERMANENT_": "{DFC9613A-1588-48CC-8382-D0431061776F}", "SOURCE_FEA": "480000801507", "SOURCE_DAT": "{092B06A5-744D-461B-BB91-876E463350D0}", "SOURCE_D_1": "TNMC VWE DB Build - Vol Update Schools", "SOURCE_ORI": "Oak Ridge National Laboratory, Geographic Information Sciences and Technology Group", "DATA_SECUR": 5, "DISTRIBUTI": "E4", "LOADDATE": "2016\/08\/12", "FTYPE": 730, "FCODE": 73003, "NAME": "DRIPPING SPRINGS ELEMENTARY SCHOOL", "ISLANDMARK": 2, "POINTLOCAT": 1, "ADMINTYPE": 0, "ADDRESSBUI": null, "ADDRESS": "29400 RANCH RD 12", "CITY": "Dripping Springs", "STATE": "TX", "ZIPCODE": "78620", "GNIS_ID": null, "FOOT_ID": null, "COMPLEX_ID": null, "FID_txdot_": 59, "CNTY_NM": "Hays", "CNTY_NBR": 106, "FIPS": 48209, "Shape_Leng": 1.8032264710599999 }, "geometry": { "type": "Point", "coordinates": [ -98.082590000128391, 30.215969999915615 ] } },
{ "type": "Feature", "properties": { "OBJECTID": 6721, "FID_Struct": 14723, "PERMANENT_": "5f512a34-3bcc-48c0-8f18-0408741a0169", "SOURCE_FEA": "10139091", "SOURCE_DAT": "{CC44F99C-6658-4584-B606-926E498D5C82}", "SOURCE_D_1": "TNMC VWE DB Build - Vol Update", "SOURCE_ORI": "U.S. Geological Survey", "DATA_SECUR": 5, "DISTRIBUTI": "E4", "LOADDATE": "2016\/08\/12", "FTYPE": 740, "FCODE": 74026, "NAME": "North Hays County Volunteer Fire Department North Station", "ISLANDMARK": 2, "POINTLOCAT": 4, "ADMINTYPE": 0, "ADDRESSBUI": null, "ADDRESS": "16716 Fitzhugh Road", "CITY": "Dripping Springs", "STATE": "TX", "ZIPCODE": "78620", "GNIS_ID": "2552640", "FOOT_ID": null, "COMPLEX_ID": null, "FID_txdot_": 59, "CNTY_NM": "Hays", "CNTY_NBR": 106, "FIPS": 48209, "Shape_Leng": 1.8032264710599999 }, "geometry": { "type": "Point", "coordinates": [ -98.05440699998303, 30.24880200131139 ] } },
{ "type": "Feature", "properties": { "OBJECTID": 6779, "FID_Struct": 6606, "PERMANENT_": "{559783EA-0FB4-4DE9-BBD8-56D596DCBF4F}", "SOURCE_FEA": null, "SOURCE_DAT": "{43CAF7AD-177F-413D-90DA-C94E9789FEC8}", "SOURCE_D_1": "NSD TNMC VWE Database Build - Reviewed features", "SOURCE_ORI": "U.S. Geological Survey", "DATA_SECUR": 5, "DISTRIBUTI": "E4", "LOADDATE": "2013\/12\/16", "FTYPE": 740, "FCODE": 74034, "NAME": "Blanco County Sheriff's Office", "ISLANDMARK": 2, "POINTLOCAT": 1, "ADMINTYPE": 5, "ADDRESSBUI": null, "ADDRESS": "400 South US Highway 281", "CITY": "Johnson City", "STATE": "TX", "ZIPCODE": "78636", "GNIS_ID": "2750725", "FOOT_ID": null, "COMPLEX_ID": null, "FID_txdot_": 64, "CNTY_NM": "Blanco", "CNTY_NBR": 16, "FIPS": 48031, "Shape_Leng": 1.68359656502 }, "geometry": { "type": "Point", "coordinates": [ -98.399493465151238, 30.269770064436955 ] } },
{ "type": "Feature", "properties": { "OBJECTID": 6798, "FID_Struct": 14627, "PERMANENT_": "{103BA2C1-6808-4E91-9DE2-FCA6B80AB96B}", "SOURCE_FEA": null, "SOURCE_DAT": "{2B6E5CC4-F3D2-4745-82E7-3F72580CD922}", "SOURCE_D_1": "TX National Park Service points of interest", "SOURCE_ORI": "Department of the Interior, National Park Service, Intermountain Region Geographic Resources Division", "DATA_SECUR": 5, "DISTRIBUTI": "E4", "LOADDATE": "2016\/12\/14", "FTYPE": 820, "FCODE": 82048, "NAME": "LBJ National Historical Park Visitor Center", "ISLANDMARK": 2, "POINTLOCAT": 1, "ADMINTYPE": 0, "ADDRESSBUI": null, "ADDRESS": null, "CITY": null, "STATE": "TX", "ZIPCODE": null, "GNIS_ID": null, "FOOT_ID": null, "COMPLEX_ID": null, "FID_txdot_": 64, "CNTY_NM": "Blanco", "CNTY_NBR": 16, "FIPS": 48031, "Shape_Leng": 1.68359656502 }, "geometry": { "type": "Point", "coordinates": [ -98.41121604528422, 30.274247316760295 ] } },
{ "type": "Feature", "properties": { "OBJECTID": 6799, "FID_Struct": 14628, "PERMANENT_": "fd2d57c1-4935-4915-b1cb-bffc6ae3d71d", "SOURCE_FEA": "10407844", "SOURCE_DAT": "{43CAF7AD-177F-413D-90DA-C94E9789FEC8}", "SOURCE_D_1": "NSD TNMC VWE Database Build - Reviewed features", "SOURCE_ORI": "U.S. Geological Survey", "DATA_SECUR": 5, "DISTRIBUTI": "E4", "LOADDATE": "2009\/07\/06", "FTYPE": 740, "FCODE": 74026, "NAME": "Johnson City Volunteer Fire Department", "ISLANDMARK": 2, "POINTLOCAT": 1, "ADMINTYPE": 0, "ADDRESSBUI": null, "ADDRESS": "300 Live Oak Drive", "CITY": "Johnson City", "STATE": "TX", "ZIPCODE": "78636", "GNIS_ID": "2552068", "FOOT_ID": null, "COMPLEX_ID": null, "FID_txdot_": 64, "CNTY_NM": "Blanco", "CNTY_NBR": 16, "FIPS": 48031, "Shape_Leng": 1.68359656502 }, "geometry": { "type": "Point", "coordinates": [ -98.408071333725047, 30.274266801471754 ] } },
{ "type": "Feature", "properties": { "OBJECTID": 6800, "FID_Struct": 526, "PERMANENT_": "{0541E317-BBC7-4A0B-826E-25EC473A1732}", "SOURCE_FEA": null, "SOURCE_DAT": "{2B6E5CC4-F3D2-4745-82E7-3F72580CD922}", "SOURCE_D_1": "TX National Park Service points of interest", "SOURCE_ORI": "Department of the Interior, National Park Service, Intermountain Region Geographic Resources Division", "DATA_SECUR": 5, "DISTRIBUTI": "E4", "LOADDATE": "2016\/12\/14", "FTYPE": 820, "FCODE": 82048, "NAME": "Johnson Settlement Event Center", "ISLANDMARK": 2, "POINTLOCAT": 1, "ADMINTYPE": 0, "ADDRESSBUI": null, "ADDRESS": null, "CITY": null, "STATE": "TX", "ZIPCODE": null, "GNIS_ID": null, "FOOT_ID": null, "COMPLEX_ID": null, "FID_txdot_": 64, "CNTY_NM": "Blanco", "CNTY_NBR": 16, "FIPS": 48031, "Shape_Leng": 1.68359656502 }, "geometry": { "type": "Point", "coordinates": [ -98.415846898215761, 30.274278742669878 ] } },
{ "type": "Feature", "properties": { "OBJECTID": 6813, "FID_Struct": 12650, "PERMANENT_": "{335A8BE1-65E1-4446-A944-D76C82905BCC}", "SOURCE_FEA": null, "SOURCE_DAT": "{43CAF7AD-177F-413D-90DA-C94E9789FEC8}", "SOURCE_D_1": "NSD TNMC VWE Database Build - Reviewed features", "SOURCE_ORI": "U.S. Geological Survey", "DATA_SECUR": 5, "DISTRIBUTI": "E4", "LOADDATE": "2013\/12\/16", "FTYPE": 740, "FCODE": 74034, "NAME": "Johnson City Police Department", "ISLANDMARK": 2, "POINTLOCAT": 1, "ADMINTYPE": 6, "ADDRESSBUI": null, "ADDRESS": "406 West Main Street", "CITY": "Johnson City", "STATE": "TX", "ZIPCODE": "78636", "GNIS_ID": "2750724", "FOOT_ID": null, "COMPLEX_ID": null, "FID_txdot_": 64, "CNTY_NM": "Blanco", "CNTY_NBR": 16, "FIPS": 48031, "Shape_Leng": 1.68359656502 }, "geometry": { "type": "Point", "coordinates": [ -98.417246281990288, 30.276976086477248 ] } },
{ "type": "Feature", "properties": { "OBJECTID": 6816, "FID_Struct": 12651, "PERMANENT_": "21978fc4-ad0c-4b7f-816b-16974b5a536d", "SOURCE_FEA": "TX000152", "SOURCE_DAT": "{43CAF7AD-177F-413D-90DA-C94E9789FEC8}", "SOURCE_D_1": "NSD TNMC VWE Database Build - Reviewed features", "SOURCE_ORI": "U.S. Geological Survey", "DATA_SECUR": 5, "DISTRIBUTI": "E4", "LOADDATE": "2013\/12\/16", "FTYPE": 740, "FCODE": 74034, "NAME": "Blanco County Sheriff's Office", "ISLANDMARK": 0, "POINTLOCAT": 1, "ADMINTYPE": 5, "ADDRESSBUI": null, "ADDRESS": "105 North Avenue G", "CITY": "Johnson City", "STATE": "TX", "ZIPCODE": "78636", "GNIS_ID": "2750355", "FOOT_ID": null, "COMPLEX_ID": null, "FID_txdot_": 64, "CNTY_NM": "Blanco", "CNTY_NBR": 16, "FIPS": 48031, "Shape_Leng": 1.68359656502 }, "geometry": { "type": "Point", "coordinates": [ -98.41104640706601, 30.277472298208068 ] } },
{ "type": "Feature", "properties": { "OBJECTID": 6817, "FID_Struct": 12652, "PERMANENT_": "{5798EB47-9B40-4DA1-B3B2-5E0D19536E4B}", "SOURCE_FEA": "482484002776", "SOURCE_DAT": "{092B06A5-744D-461B-BB91-876E463350D0}", "SOURCE_D_1": "TNMC VWE DB Build - Vol Update Schools", "SOURCE_ORI": "Oak Ridge National Laboratory, Geographic Information Sciences and Technology Group", "DATA_SECUR": 5, "DISTRIBUTI": "E4", "LOADDATE": "2016\/08\/12", "FTYPE": 730, "FCODE": 73003, "NAME": "LYNDON B JOHNSON ELEMENTARY SCHOOL", "ISLANDMARK": 2, "POINTLOCAT": 1, "ADMINTYPE": 0, "ADDRESSBUI": null, "ADDRESS": "401 E PECAN ST", "CITY": "JOHNSON CITY", "STATE": "TX", "ZIPCODE": "78636", "GNIS_ID": null, "FOOT_ID": null, "COMPLEX_ID": null, "FID_txdot_": 64, "CNTY_NM": "Blanco", "CNTY_NBR": 16, "FIPS": 48031, "Shape_Leng": 1.68359656502 }, "geometry": { "type": "Point", "coordinates": [ -98.408207800449588, 30.278050600055224 ] } },
{ "type": "Feature", "properties": { "OBJECTID": 6826, "FID_Struct": 8658, "PERMANENT_": "{D453CBEE-FBE7-47D8-A668-E1C8DC9E5D68}", "SOURCE_FEA": "482484006125", "SOURCE_DAT": "{092B06A5-744D-461B-BB91-876E463350D0}", "SOURCE_D_1": "TNMC VWE DB Build - Vol Update Schools", "SOURCE_ORI": "Oak Ridge National Laboratory, Geographic Information Sciences and Technology Group", "DATA_SECUR": 5, "DISTRIBUTI": "E4", "LOADDATE": "2016\/08\/12", "FTYPE": 730, "FCODE": 73004, "NAME": "LYNDON B JOHNSON MIDDLE SCHOOL", "ISLANDMARK": 2, "POINTLOCAT": 1, "ADMINTYPE": 0, "ADDRESSBUI": null, "ADDRESS": "303 N LBJ DR", "CITY": "JOHNSON CITY", "STATE": "TX", "ZIPCODE": "78636", "GNIS_ID": null, "FOOT_ID": null, "COMPLEX_ID": null, "FID_txdot_": 64, "CNTY_NM": "Blanco", "CNTY_NBR": 16, "FIPS": 48031, "Shape_Leng": 1.68359656502 }, "geometry": { "type": "Point", "coordinates": [ -98.40796190062116, 30.279278800576265 ] } },
{ "type": "Feature", "properties": { "OBJECTID": 6832, "FID_Struct": 8657, "PERMANENT_": "{62C90CB7-A465-4B58-9878-E6F73EB515CC}", "SOURCE_FEA": "482484002777", "SOURCE_DAT": "{092B06A5-744D-461B-BB91-876E463350D0}", "SOURCE_D_1": "TNMC VWE DB Build - Vol Update Schools", "SOURCE_ORI": "Oak Ridge National Laboratory, Geographic Information Sciences and Technology Group", "DATA_SECUR": 5, "DISTRIBUTI": "E4", "LOADDATE": "2016\/08\/12", "FTYPE": 730, "FCODE": 73005, "NAME": "LYNDON B JOHNSON High School", "ISLANDMARK": 2, "POINTLOCAT": 1, "ADMINTYPE": 0, "ADDRESSBUI": null, "ADDRESS": "505 NUGENT AVE.", "CITY": "JOHNSON CITY", "STATE": "TX", "ZIPCODE": "78636", "GNIS_ID": null, "FOOT_ID": null, "COMPLEX_ID": null, "FID_txdot_": 64, "CNTY_NM": "Blanco", "CNTY_NBR": 16, "FIPS": 48031, "Shape_Leng": 1.68359656502 }, "geometry": { "type": "Point", "coordinates": [ -98.411459300206502, 30.281378600641972 ] } },
{ "type": "Feature", "properties": { "OBJECTID": 7247, "FID_Struct": 6607, "PERMANENT_": "3959b13e-66b5-4abe-8e51-ec889aeb97ad", "SOURCE_FEA": "10409049", "SOURCE_DAT": "{43CAF7AD-177F-413D-90DA-C94E9789FEC8}", "SOURCE_D_1": "NSD TNMC VWE Database Build - Reviewed features", "SOURCE_ORI": "U.S. Geological Survey", "DATA_SECUR": 5, "DISTRIBUTI": "E4", "LOADDATE": "2009\/07\/06", "FTYPE": 740, "FCODE": 74026, "NAME": "Round Mountain Volunteer Fire Department", "ISLANDMARK": 2, "POINTLOCAT": 4, "ADMINTYPE": 0, "ADDRESSBUI": null, "ADDRESS": "10539 US Highway 281 North", "CITY": "Round Mountain", "STATE": "TX", "ZIPCODE": "78663", "GNIS_ID": "2551125", "FOOT_ID": null, "COMPLEX_ID": null, "FID_txdot_": 64, "CNTY_NM": "Blanco", "CNTY_NBR": 16, "FIPS": 48031, "Shape_Leng": 1.68359656502 }, "geometry": { "type": "Point", "coordinates": [ -98.344294630193019, 30.430805799647999 ] } }
]
}
