{
"type": "FeatureCollection",
"features": [
{ "type": "Feature", "properties": { "OBJECTID_1": 1, "OBJECTID": 38, "Permanent_": "{26712374-0E06-47C7-96B3-9A5D2ECC6052}", "Source_Fea": "9999999999", "Source_Dat": "{CC44F99C-6658-4584-B606-926E498D5C82}", "Source_D_1": "TNMC VWE DB Build - Vol Update", "Source_Ori": "U.S. Geological Survey", "Data_Secur": 5, "Distributi": "E4", "LoadDate": "2016\/08\/12", "FType": 800, "FCode": 80012, "Name": "Warm Springs Specialty Hospital of New Braunfels", "IsLandmark": 2, "PointLocat": 1, "AdminType": 0, "AddressBui": null, "Address": "1445 Hanz Drive", "City": "New Braunfels", "State": "TX", "Zipcode": "78130", "GNIS_ID": "2719018", "Foot_ID": null, "Complex_ID": null, "FType_1": 800, "FCode_1": 80012 }, "geometry": { "type": "Point", "coordinates": [ -98.102685489743521, 29.729242496943755 ] } },
{ "type": "Feature", "properties": { "OBJECTID_1": 2, "OBJECTID": 60, "Permanent_": "7b03164a-551f-4656-b19d-7de9933371f5", "Source_Fea": "9999999999", "Source_Dat": "{CC44F99C-6658-4584-B606-926E498D5C82}", "Source_D_1": "TNMC VWE DB Build - Vol Update", "Source_Ori": "U.S. Geological Survey", "Data_Secur": 5, "Distributi": "E4", "LoadDate": "2016\/08\/12", "FType": 800, "FCode": 80012, "Name": "CHRISTUS Santa Rosa Hospital - New Braunfels", "IsLandmark": 0, "PointLocat": 1, "AdminType": 0, "AddressBui": null, "Address": "600 North Union Avenue", "City": "New Braunfels", "State": "TX", "Zipcode": "78130", "GNIS_ID": "2015601", "Foot_ID": null, "Complex_ID": null, "FType_1": 800, "FCode_1": 80012 }, "geometry": { "type": "Point", "coordinates": [ -98.123356494206803, 29.715522893067089 ] } },
{ "type": "Feature", "properties": { "OBJECTID_1": 3, "OBJECTID": 156, "Permanent_": "d73fbf5f-83ba-44ae-8ea3-85bdac81e9d5", "Source_Fea": "10481556", "Source_Dat": "8a085a8a-8d18-4d64-a451-18844a70036a", "Source_D_1": "800 TNMC Update 12\/11\/2016", "Source_Ori": "U.S. Geological Survey", "Data_Secur": 5, "Distributi": "E4", "LoadDate": "2016\/12\/11", "FType": 800, "FCode": 80012, "Name": "Central Texas Medical Center", "IsLandmark": 0, "PointLocat": 1, "AdminType": 0, "AddressBui": null, "Address": "1301 Wonder World Drive", "City": "San Marcos", "State": "TX", "Zipcode": "78666-7544", "GNIS_ID": "2015776", "Foot_ID": null, "Complex_ID": null, "FType_1": 800, "FCode_1": 80012 }, "geometry": { "type": "Point", "coordinates": [ -97.945800780481591, 29.852724075056074 ] } }
]
}
