{
"type": "FeatureCollection",
"features": [
{ "type": "Feature", "properties": { "OBJECTID_1": 1, "OBJECTID": 1, "Permanent_": "{B2B04231-6CB0-4659-B154-2C09EB807E68}", "Source_Fea": "481479000978", "Source_Dat": "{092B06A5-744D-461B-BB91-876E463350D0}", "Source_D_1": "TNMC VWE DB Build - Vol Update Schools", "Source_Ori": "Oak Ridge National Laboratory, Geographic Information Sciences and Technology Group", "Data_Secur": 5, "Distributi": "E4", "LoadDate": "2016\/08\/12", "FType": 730, "FCode": 73003, "Name": "Comfort Elementary School", "IsLandmark": 2, "PointLocat": 1, "AdminType": 0, "AddressBui": null, "Address": "605 3rd Street", "City": "Comfort", "State": "TX", "Zipcode": "78013", "GNIS_ID": null, "Foot_ID": null, "Complex_ID": null, "FType_1": 730, "FCode_1": 73003 }, "geometry": { "type": "Point", "coordinates": [ -98.91294260052058, 29.971750316423993 ] } },
{ "type": "Feature", "properties": { "OBJECTID_1": 2, "OBJECTID": 2, "Permanent_": "{4867BF61-70ED-4A0F-B084-4AF210B02C31}", "Source_Fea": "481071008685", "Source_Dat": "{092B06A5-744D-461B-BB91-876E463350D0}", "Source_D_1": "TNMC VWE DB Build - Vol Update Schools", "Source_Ori": "Oak Ridge National Laboratory, Geographic Information Sciences and Technology Group", "Data_Secur": 5, "Distributi": "E4", "LoadDate": "2016\/08\/12", "FType": 730, "FCode": 73002, "Name": "Meadowland Charter School", "IsLandmark": 2, "PointLocat": 1, "AdminType": 0, "AddressBui": null, "Address": "121 Old San Antonio Road", "City": "Boerne", "State": "TX", "Zipcode": "78006", "GNIS_ID": null, "Foot_ID": null, "Complex_ID": null, "FType_1": 730, "FCode_1": 73002 }, "geometry": { "type": "Point", "coordinates": [ -98.709161641496507, 29.765747082262067 ] } },
{ "type": "Feature", "properties": { "OBJECTID_1": 3, "OBJECTID": 3, "Permanent_": "{71D0D821-34A7-492B-BF6B-8539B69DB79E}", "Source_Fea": "481473000965", "Source_Dat": "{092B06A5-744D-461B-BB91-876E463350D0}", "Source_D_1": "TNMC VWE DB Build - Vol Update Schools", "Source_Ori": "Oak Ridge National Laboratory, Geographic Information Sciences and Technology Group", "Data_Secur": 5, "Distributi": "E4", "LoadDate": "2016\/08\/12", "FType": 730, "FCode": 73003, "Name": "Rahe Bulverde Elementary School", "IsLandmark": 2, "PointLocat": 1, "AdminType": 0, "AddressBui": null, "Address": "1715 East Ammann Road", "City": "Bulverde", "State": "TX", "Zipcode": "78163", "GNIS_ID": null, "Foot_ID": null, "Complex_ID": null, "FType_1": 730, "FCode_1": 73003 }, "geometry": { "type": "Point", "coordinates": [ -98.459675979562746, 29.760840690545479 ] } },
{ "type": "Feature", "properties": { "OBJECTID_1": 4, "OBJECTID": 7, "Permanent_": "{102A81EC-AEE7-4C15-AD2A-B1DF725E1055}", "Source_Fea": "481473011910", "Source_Dat": "{CC19ABE0-361F-4846-B852-AA57C04368C8}", "Source_D_1": "NSD TNMC VWE Database Build - Reviewed Schools", "Source_Ori": "Oak Ridge National Laboratory, Geographic Information Sciences and Technology Group", "Data_Secur": 5, "Distributi": "E4", "LoadDate": "2011\/12\/20", "FType": 730, "FCode": 73002, "Name": "MORNINGSIDE EL", "IsLandmark": 2, "PointLocat": 1, "AdminType": 0, "AddressBui": null, "Address": "1404 IH 35 N", "City": "New Braunfels", "State": "TX", "Zipcode": "78130", "GNIS_ID": null, "Foot_ID": null, "Complex_ID": null, "FType_1": 730, "FCode_1": 73002 }, "geometry": { "type": "Point", "coordinates": [ -98.161296748246286, 29.658471251447168 ] } },
{ "type": "Feature", "properties": { "OBJECTID_1": 5, "OBJECTID": 9, "Permanent_": "{9BDACC9C-501E-42BD-ACDA-7B9F9DD1AEBE}", "Source_Fea": "483237003590", "Source_Dat": "{092B06A5-744D-461B-BB91-876E463350D0}", "Source_D_1": "TNMC VWE DB Build - Vol Update Schools", "Source_Ori": "Oak Ridge National Laboratory, Geographic Information Sciences and Technology Group", "Data_Secur": 5, "Distributi": "E4", "LoadDate": "2016\/08\/12", "FType": 730, "FCode": 73003, "Name": "Lone Star Elementary School", "IsLandmark": 2, "PointLocat": 1, "AdminType": 0, "AddressBui": null, "Address": "2343 West San Antonio Street", "City": "New Braunfels", "State": "TX", "Zipcode": "78130-6799", "GNIS_ID": null, "Foot_ID": null, "Complex_ID": null, "FType_1": 730, "FCode_1": 73003 }, "geometry": { "type": "Point", "coordinates": [ -98.143652797938216, 29.68511938675033 ] } },
{ "type": "Feature", "properties": { "OBJECTID_1": 6, "OBJECTID": 10, "Permanent_": "{20E7DC0C-121B-4C43-87F2-4C6298A96AE8}", "Source_Fea": "A0771777", "Source_Dat": "{CC19ABE0-361F-4846-B852-AA57C04368C8}", "Source_D_1": "NSD TNMC VWE Database Build - Reviewed Schools", "Source_Ori": "Oak Ridge National Laboratory, Geographic Information Sciences and Technology Group", "Data_Secur": 5, "Distributi": "E4", "LoadDate": "2011\/12\/20", "FType": 730, "FCode": 73003, "Name": "I'CENTO INC", "IsLandmark": 2, "PointLocat": 1, "AdminType": 0, "AddressBui": null, "Address": null, "City": null, "State": "TX", "Zipcode": "-", "GNIS_ID": null, "Foot_ID": null, "Complex_ID": null, "FType_1": 730, "FCode_1": 73003 }, "geometry": { "type": "Point", "coordinates": [ -98.128609763429779, 29.734989836611703 ] } },
{ "type": "Feature", "properties": { "OBJECTID_1": 7, "OBJECTID": 11, "Permanent_": "{146A2647-249E-4693-BED0-05CE35130061}", "Source_Fea": "01322231", "Source_Dat": "{CC19ABE0-361F-4846-B852-AA57C04368C8}", "Source_D_1": "NSD TNMC VWE Database Build - Reviewed Schools", "Source_Ori": "Oak Ridge National Laboratory, Geographic Information Sciences and Technology Group", "Data_Secur": 5, "Distributi": "E4", "LoadDate": "2011\/12\/20", "FType": 730, "FCode": 73003, "Name": "STS PETER AND PAUL CATHOLIC SCHOOL", "IsLandmark": 2, "PointLocat": 1, "AdminType": 0, "AddressBui": null, "Address": null, "City": null, "State": "TX", "Zipcode": "-", "GNIS_ID": null, "Foot_ID": null, "Complex_ID": null, "FType_1": 730, "FCode_1": 73003 }, "geometry": { "type": "Point", "coordinates": [ -98.127444660242816, 29.703580027596274 ] } },
{ "type": "Feature", "properties": { "OBJECTID_1": 8, "OBJECTID": 12, "Permanent_": "{81949380-8AE1-450E-918E-892D7F9936BA}", "Source_Fea": "483237003589", "Source_Dat": "{092B06A5-744D-461B-BB91-876E463350D0}", "Source_D_1": "TNMC VWE DB Build - Vol Update Schools", "Source_Ori": "Oak Ridge National Laboratory, Geographic Information Sciences and Technology Group", "Data_Secur": 5, "Distributi": "E4", "LoadDate": "2016\/08\/12", "FType": 730, "FCode": 73003, "Name": "Carl Schurz Elementary School", "IsLandmark": 2, "PointLocat": 1, "AdminType": 0, "AddressBui": null, "Address": "633 West Coll Street", "City": "New Braunfels", "State": "TX", "Zipcode": "78130", "GNIS_ID": null, "Foot_ID": null, "Complex_ID": null, "FType_1": 730, "FCode_1": 73003 }, "geometry": { "type": "Point", "coordinates": [ -98.124655294206434, 29.695532689781885 ] } },
{ "type": "Feature", "properties": { "OBJECTID_1": 9, "OBJECTID": 14, "Permanent_": "{6B79241B-FBCF-42A1-A093-E8A962350C5E}", "Source_Fea": "481473011442", "Source_Dat": "{CC19ABE0-361F-4846-B852-AA57C04368C8}", "Source_D_1": "NSD TNMC VWE Database Build - Reviewed Schools", "Source_Ori": "Oak Ridge National Laboratory, Geographic Information Sciences and Technology Group", "Data_Secur": 5, "Distributi": "E4", "LoadDate": "2011\/12\/20", "FType": 730, "FCode": 73003, "Name": "FREIHEIT ELEMENTARY", "IsLandmark": 2, "PointLocat": 1, "AdminType": 0, "AddressBui": null, "Address": "2002 FM 1101", "City": "New Braunfels", "State": "TX", "Zipcode": "78130", "GNIS_ID": null, "Foot_ID": null, "Complex_ID": null, "FType_1": 730, "FCode_1": 73003 }, "geometry": { "type": "Point", "coordinates": [ -98.077982745407326, 29.70841571371426 ] } },
{ "type": "Feature", "properties": { "OBJECTID_1": 10, "OBJECTID": 15, "Permanent_": "{8E9290CA-4BB3-4A3D-9624-C12E5536084A}", "Source_Fea": "483897004449", "Source_Dat": "{092B06A5-744D-461B-BB91-876E463350D0}", "Source_D_1": "TNMC VWE DB Build - Vol Update Schools", "Source_Ori": "Oak Ridge National Laboratory, Geographic Information Sciences and Technology Group", "Data_Secur": 5, "Distributi": "E4", "LoadDate": "2016\/08\/12", "FType": 730, "FCode": 73003, "Name": "CROCKETT ELEMENTARY", "IsLandmark": 2, "PointLocat": 1, "AdminType": 0, "AddressBui": null, "Address": "1300 Girard Street", "City": "SAN MARCOS", "State": "TX", "Zipcode": "78666", "GNIS_ID": null, "Foot_ID": null, "Complex_ID": null, "FType_1": 730, "FCode_1": 73003 }, "geometry": { "type": "Point", "coordinates": [ -97.961240662426576, 29.8853437330269 ] } },
{ "type": "Feature", "properties": { "OBJECTID_1": 11, "OBJECTID": 17, "Permanent_": "{F5D96BE1-B082-4DD9-8C98-40EF726AC6C0}", "Source_Fea": "228459", "Source_Dat": "{092B06A5-744D-461B-BB91-876E463350D0}", "Source_D_1": "TNMC VWE DB Build - Vol Update Schools", "Source_Ori": "Oak Ridge National Laboratory, Geographic Information Sciences and Technology Group", "Data_Secur": 5, "Distributi": "E4", "LoadDate": "2014\/06\/25", "FType": 730, "FCode": 73006, "Name": "Texas State University San Marcos", "IsLandmark": 2, "PointLocat": 1, "AdminType": 0, "AddressBui": null, "Address": "601 University Drive", "City": "San Marcos", "State": "TX", "Zipcode": "78666", "GNIS_ID": null, "Foot_ID": null, "Complex_ID": null, "FType_1": 730, "FCode_1": 73006 }, "geometry": { "type": "Point", "coordinates": [ -97.936399656319054, 29.889207302375155 ] } },
{ "type": "Feature", "properties": { "OBJECTID_1": 12, "OBJECTID": 19, "Permanent_": "{20E3D957-05A3-450A-B9C8-B93DDE8720BA}", "Source_Fea": "480001010808", "Source_Dat": "{092B06A5-744D-461B-BB91-876E463350D0}", "Source_D_1": "TNMC VWE DB Build - Vol Update Schools", "Source_Ori": "Oak Ridge National Laboratory, Geographic Information Sciences and Technology Group", "Data_Secur": 5, "Distributi": "E4", "LoadDate": "2016\/08\/12", "FType": 730, "FCode": 73003, "Name": "Blanco Vista Elementary School", "IsLandmark": 2, "PointLocat": 1, "AdminType": 0, "AddressBui": null, "Address": "2951 Blanco Vista Boulevard", "City": "Kyle", "State": "TX", "Zipcode": "78666", "GNIS_ID": null, "Foot_ID": null, "Complex_ID": null, "FType_1": 730, "FCode_1": 73003 }, "geometry": { "type": "Point", "coordinates": [ -97.896237349274202, 29.946721247687492 ] } },
{ "type": "Feature", "properties": { "OBJECTID_1": 13, "OBJECTID": 20, "Permanent_": "{6ACC7C5A-603D-4323-A7FD-C066E2BACD38}", "Source_Fea": "480001008840", "Source_Dat": "{092B06A5-744D-461B-BB91-876E463350D0}", "Source_D_1": "TNMC VWE DB Build - Vol Update Schools", "Source_Ori": "Oak Ridge National Laboratory, Geographic Information Sciences and Technology Group", "Data_Secur": 5, "Distributi": "E4", "LoadDate": "2016\/08\/12", "FType": 730, "FCode": 73003, "Name": "Hemphill Elementary School", "IsLandmark": 2, "PointLocat": 1, "AdminType": 0, "AddressBui": null, "Address": "3995 East Farm to Marker Road 150", "City": "Kyle", "State": "TX", "Zipcode": "78640", "GNIS_ID": null, "Foot_ID": null, "Complex_ID": null, "FType_1": 730, "FCode_1": 73003 }, "geometry": { "type": "Point", "coordinates": [ -97.827122431954649, 29.943597749336732 ] } },
{ "type": "Feature", "properties": { "OBJECTID_1": 14, "OBJECTID": 22, "Permanent_": "{DA83ED39-CA52-4C23-8032-53F6588FB71C}", "Source_Fea": "480001006990", "Source_Dat": "{CC19ABE0-361F-4846-B852-AA57C04368C8}", "Source_D_1": "NSD TNMC VWE Database Build - Reviewed Schools", "Source_Ori": "Oak Ridge National Laboratory, Geographic Information Sciences and Technology Group", "Data_Secur": 5, "Distributi": "E4", "LoadDate": "2011\/12\/20", "FType": 730, "FCode": 73002, "Name": "ALTER IMPACT CTR", "IsLandmark": 2, "PointLocat": 1, "AdminType": 0, "AddressBui": null, "Address": "4125B F M 967", "City": "Buda", "State": "TX", "Zipcode": "78610", "GNIS_ID": null, "Foot_ID": null, "Complex_ID": null, "FType_1": 730, "FCode_1": 73002 }, "geometry": { "type": "Point", "coordinates": [ -97.891235498119727, 30.094339588101548 ] } },
{ "type": "Feature", "properties": { "OBJECTID_1": 15, "OBJECTID": 23, "Permanent_": "{65E962DB-70A4-4D9D-B768-A9867C2492D0}", "Source_Fea": "480001008837", "Source_Dat": "{092B06A5-744D-461B-BB91-876E463350D0}", "Source_D_1": "TNMC VWE DB Build - Vol Update Schools", "Source_Ori": "Oak Ridge National Laboratory, Geographic Information Sciences and Technology Group", "Data_Secur": 5, "Distributi": "E4", "LoadDate": "2016\/08\/12", "FType": 730, "FCode": 73004, "Name": "Wallace Middle School", "IsLandmark": 2, "PointLocat": 1, "AdminType": 0, "AddressBui": null, "Address": "1500 West Center Street", "City": "Kyle", "State": "TX", "Zipcode": "78640", "GNIS_ID": null, "Foot_ID": null, "Complex_ID": null, "FType_1": 730, "FCode_1": 73004 }, "geometry": { "type": "Point", "coordinates": [ -97.889837649487902, 29.9915725560287 ] } },
{ "type": "Feature", "properties": { "OBJECTID_1": 16, "OBJECTID": 24, "Permanent_": "{5E8B1FA7-D1CA-4D53-A230-2A86E0109D1F}", "Source_Fea": "480001010805", "Source_Dat": "{CC19ABE0-361F-4846-B852-AA57C04368C8}", "Source_D_1": "NSD TNMC VWE Database Build - Reviewed Schools", "Source_Ori": "Oak Ridge National Laboratory, Geographic Information Sciences and Technology Group", "Data_Secur": 5, "Distributi": "E4", "LoadDate": "2011\/12\/20", "FType": 730, "FCode": 73002, "Name": "NEW M S #5", "IsLandmark": 2, "PointLocat": 1, "AdminType": 0, "AddressBui": null, "Address": "21003 IH 35", "City": "Kyle", "State": "TX", "Zipcode": "78640", "GNIS_ID": null, "Foot_ID": null, "Complex_ID": null, "FType_1": 730, "FCode_1": 73002 }, "geometry": { "type": "Point", "coordinates": [ -97.862207643368038, 30.009305160604754 ] } },
{ "type": "Feature", "properties": { "OBJECTID_1": 17, "OBJECTID": 25, "Permanent_": "{22E6F17E-E87F-4CA5-A3B9-5070047CF9AB}", "Source_Fea": "480001007343", "Source_Dat": "{092B06A5-744D-461B-BB91-876E463350D0}", "Source_D_1": "TNMC VWE DB Build - Vol Update Schools", "Source_Ori": "Oak Ridge National Laboratory, Geographic Information Sciences and Technology Group", "Data_Secur": 5, "Distributi": "E4", "LoadDate": "2014\/06\/25", "FType": 730, "FCode": 73003, "Name": "Buda Elementary School", "IsLandmark": 2, "PointLocat": 1, "AdminType": 0, "AddressBui": null, "Address": "300 San Marcos", "City": "Buda", "State": "TX", "Zipcode": "78610", "GNIS_ID": null, "Foot_ID": null, "Complex_ID": null, "FType_1": 730, "FCode_1": 73003 }, "geometry": { "type": "Point", "coordinates": [ -97.845035642880589, 30.084049204407336 ] } },
{ "type": "Feature", "properties": { "OBJECTID_1": 18, "OBJECTID": 26, "Permanent_": "{51733A01-2DE8-4E9A-8C75-B8A8461AB6BD}", "Source_Fea": "480007111445", "Source_Dat": "{CC19ABE0-361F-4846-B852-AA57C04368C8}", "Source_D_1": "NSD TNMC VWE Database Build - Reviewed Schools", "Source_Ori": "Oak Ridge National Laboratory, Geographic Information Sciences and Technology Group", "Data_Secur": 5, "Distributi": "E4", "LoadDate": "2011\/12\/20", "FType": 730, "FCode": 73004, "Name": "OLYMPIC HILLS", "IsLandmark": 2, "PointLocat": 1, "AdminType": 0, "AddressBui": null, "Address": "222 PARK 35 COVE N", "City": "Buda", "State": "TX", "Zipcode": "78713", "GNIS_ID": null, "Foot_ID": null, "Complex_ID": null, "FType_1": 730, "FCode_1": 73004 }, "geometry": { "type": "Point", "coordinates": [ -97.83207465941797, 30.069453660857789 ] } },
{ "type": "Feature", "properties": { "OBJECTID_1": 19, "OBJECTID": 29, "Permanent_": "{D86DA723-8AE2-4114-9401-2D164DFAB826}", "Source_Fea": "481071000535", "Source_Dat": "{092B06A5-744D-461B-BB91-876E463350D0}", "Source_D_1": "TNMC VWE DB Build - Vol Update Schools", "Source_Ori": "Oak Ridge National Laboratory, Geographic Information Sciences and Technology Group", "Data_Secur": 5, "Distributi": "E4", "LoadDate": "2016\/08\/12", "FType": 730, "FCode": 73005, "Name": "Boerne High School", "IsLandmark": 2, "PointLocat": 1, "AdminType": 0, "AddressBui": null, "Address": "One Greyhound Lane", "City": "Boerne", "State": "TX", "Zipcode": "78006", "GNIS_ID": null, "Foot_ID": null, "Complex_ID": null, "FType_1": 730, "FCode_1": 73005 }, "geometry": { "type": "Point", "coordinates": [ -98.710695842638984, 29.799161188737912 ] } },
{ "type": "Feature", "properties": { "OBJECTID_1": 20, "OBJECTID": 30, "Permanent_": "{65A9E4BC-7200-41B4-BECD-A4C623D214AB}", "Source_Fea": "A0771797", "Source_Dat": "{092B06A5-744D-461B-BB91-876E463350D0}", "Source_D_1": "TNMC VWE DB Build - Vol Update Schools", "Source_Ori": "Oak Ridge National Laboratory, Geographic Information Sciences and Technology Group", "Data_Secur": 5, "Distributi": "E4", "LoadDate": "2016\/08\/12", "FType": 730, "FCode": 73002, "Name": "Lighthouse Christian Learning Center", "IsLandmark": 2, "PointLocat": 1, "AdminType": 0, "AddressBui": null, "Address": "2420 Bulverde Road", "City": "Bulverde", "State": "TX", "Zipcode": "78163", "GNIS_ID": null, "Foot_ID": null, "Complex_ID": null, "FType_1": 730, "FCode_1": 73002 }, "geometry": { "type": "Point", "coordinates": [ -98.450746176594748, 29.742692287119382 ] } },
{ "type": "Feature", "properties": { "OBJECTID_1": 21, "OBJECTID": 32, "Permanent_": "{CEF82898-B420-4C9E-9E39-EBDAC0BEDA3B}", "Source_Fea": "481473000974", "Source_Dat": "{CC19ABE0-361F-4846-B852-AA57C04368C8}", "Source_D_1": "NSD TNMC VWE Database Build - Reviewed Schools", "Source_Ori": "Oak Ridge National Laboratory, Geographic Information Sciences and Technology Group", "Data_Secur": 5, "Distributi": "E4", "LoadDate": "2011\/12\/20", "FType": 730, "FCode": 73005, "Name": "SMITHSON VALLEY HIGH SCHOOL", "IsLandmark": 2, "PointLocat": 1, "AdminType": 0, "AddressBui": null, "Address": "14001 HWY 46 W", "City": "Spring Branch", "State": "TX", "Zipcode": "78070", "GNIS_ID": null, "Foot_ID": null, "Complex_ID": null, "FType_1": 730, "FCode_1": 73005 }, "geometry": { "type": "Point", "coordinates": [ -98.360057972197637, 29.802646360241397 ] } },
{ "type": "Feature", "properties": { "OBJECTID_1": 22, "OBJECTID": 33, "Permanent_": "{1847FF53-C94E-467F-AB98-C31CD54FA9E0}", "Source_Fea": "481473000966", "Source_Dat": "{CC19ABE0-361F-4846-B852-AA57C04368C8}", "Source_D_1": "NSD TNMC VWE Database Build - Reviewed Schools", "Source_Ori": "Oak Ridge National Laboratory, Geographic Information Sciences and Technology Group", "Data_Secur": 5, "Distributi": "E4", "LoadDate": "2011\/12\/20", "FType": 730, "FCode": 73004, "Name": "SMITHSON VALLEY MIDDLE", "IsLandmark": 2, "PointLocat": 1, "AdminType": 0, "AddressBui": null, "Address": "6101 FM 311", "City": "Spring Branch", "State": "TX", "Zipcode": "78070", "GNIS_ID": null, "Foot_ID": null, "Complex_ID": null, "FType_1": 730, "FCode_1": 73004 }, "geometry": { "type": "Point", "coordinates": [ -98.348294630292912, 29.821228400570305 ] } },
{ "type": "Feature", "properties": { "OBJECTID_1": 23, "OBJECTID": 34, "Permanent_": "{15D3487E-1F6A-4050-9D72-4CE706C58D0E}", "Source_Fea": "481473000969", "Source_Dat": "{CC19ABE0-361F-4846-B852-AA57C04368C8}", "Source_D_1": "NSD TNMC VWE Database Build - Reviewed Schools", "Source_Ori": "Oak Ridge National Laboratory, Geographic Information Sciences and Technology Group", "Data_Secur": 5, "Distributi": "E4", "LoadDate": "2011\/12\/20", "FType": 730, "FCode": 73002, "Name": "COMAL ELEMENTARY SCHOOL", "IsLandmark": 2, "PointLocat": 1, "AdminType": 0, "AddressBui": null, "Address": "6720 FM 482", "City": "New Braunfels", "State": "TX", "Zipcode": "78132", "GNIS_ID": null, "Foot_ID": null, "Complex_ID": null, "FType_1": 730, "FCode_1": 73002 }, "geometry": { "type": "Point", "coordinates": [ -98.226914738124606, 29.644728084433609 ] } },
{ "type": "Feature", "properties": { "OBJECTID_1": 24, "OBJECTID": 35, "Permanent_": "{C4201F96-2744-4D44-8400-6839CA74F50D}", "Source_Fea": "483237003591", "Source_Dat": "{CC19ABE0-361F-4846-B852-AA57C04368C8}", "Source_D_1": "NSD TNMC VWE Database Build - Reviewed Schools", "Source_Ori": "Oak Ridge National Laboratory, Geographic Information Sciences and Technology Group", "Data_Secur": 5, "Distributi": "E4", "LoadDate": "2011\/12\/20", "FType": 730, "FCode": 73005, "Name": "NEW BRAUNFELS H S", "IsLandmark": 2, "PointLocat": 1, "AdminType": 0, "AddressBui": null, "Address": "2551 LOOP 337 N", "City": "New Braunfels", "State": "TX", "Zipcode": "78130", "GNIS_ID": null, "Foot_ID": null, "Complex_ID": null, "FType_1": 730, "FCode_1": 73005 }, "geometry": { "type": "Point", "coordinates": [ -98.149958195714134, 29.718693323438174 ] } },
{ "type": "Feature", "properties": { "OBJECTID_1": 25, "OBJECTID": 37, "Permanent_": "{CD4C6CBE-6D6D-4610-8651-B74609F4AC8F}", "Source_Fea": "483237006147", "Source_Dat": "{CC19ABE0-361F-4846-B852-AA57C04368C8}", "Source_D_1": "NSD TNMC VWE Database Build - Reviewed Schools", "Source_Ori": "Oak Ridge National Laboratory, Geographic Information Sciences and Technology Group", "Data_Secur": 5, "Distributi": "E4", "LoadDate": "2011\/12\/20", "FType": 730, "FCode": 73002, "Name": "MEMORIAL PRI", "IsLandmark": 2, "PointLocat": 1, "AdminType": 0, "AddressBui": null, "Address": "1200 COUNTY LINE RD", "City": "New Braunfels", "State": "TX", "Zipcode": "78130", "GNIS_ID": null, "Foot_ID": null, "Complex_ID": null, "FType_1": 730, "FCode_1": 73002 }, "geometry": { "type": "Point", "coordinates": [ -98.121367905204636, 29.670721577139147 ] } },
{ "type": "Feature", "properties": { "OBJECTID_1": 26, "OBJECTID": 39, "Permanent_": "{B7A1DAB1-A6F9-4E74-AFCE-5DE62A1C5A3F}", "Source_Fea": "481473011943", "Source_Dat": "{CC19ABE0-361F-4846-B852-AA57C04368C8}", "Source_D_1": "NSD TNMC VWE Database Build - Reviewed Schools", "Source_Ori": "Oak Ridge National Laboratory, Geographic Information Sciences and Technology Group", "Data_Secur": 5, "Distributi": "E4", "LoadDate": "2011\/12\/20", "FType": 730, "FCode": 73002, "Name": "BORGFELD AREA MIDDLE", "IsLandmark": 2, "PointLocat": 1, "AdminType": 0, "AddressBui": null, "Address": "1404 IH 35 N", "City": "New Braunfels", "State": "TX", "Zipcode": "78130", "GNIS_ID": null, "Foot_ID": null, "Complex_ID": null, "FType_1": 730, "FCode_1": 73002 }, "geometry": { "type": "Point", "coordinates": [ -98.091397685954405, 29.704785092158318 ] } },
{ "type": "Feature", "properties": { "OBJECTID_1": 27, "OBJECTID": 40, "Permanent_": "{956A2F85-38CD-40EA-8E1C-0CADE20D5313}", "Source_Fea": "481473011919", "Source_Dat": "{CC19ABE0-361F-4846-B852-AA57C04368C8}", "Source_D_1": "NSD TNMC VWE Database Build - Reviewed Schools", "Source_Ori": "Oak Ridge National Laboratory, Geographic Information Sciences and Technology Group", "Data_Secur": 5, "Distributi": "E4", "LoadDate": "2011\/12\/20", "FType": 730, "FCode": 73002, "Name": "AVERY PARK AREA EL", "IsLandmark": 2, "PointLocat": 1, "AdminType": 0, "AddressBui": null, "Address": "1404 IH 35 N", "City": "New Braunfels", "State": "TX", "Zipcode": "78130", "GNIS_ID": null, "Foot_ID": null, "Complex_ID": null, "FType_1": 730, "FCode_1": 73002 }, "geometry": { "type": "Point", "coordinates": [ -98.091397685954405, 29.704785092158318 ] } },
{ "type": "Feature", "properties": { "OBJECTID_1": 28, "OBJECTID": 44, "Permanent_": "{D9350DFC-97FA-4F4B-89CA-8ACBDBFB886D}", "Source_Fea": "483897004451", "Source_Dat": "{092B06A5-744D-461B-BB91-876E463350D0}", "Source_D_1": "TNMC VWE DB Build - Vol Update Schools", "Source_Ori": "Oak Ridge National Laboratory, Geographic Information Sciences and Technology Group", "Data_Secur": 5, "Distributi": "E4", "LoadDate": "2016\/08\/12", "FType": 730, "FCode": 73003, "Name": "HERNANDEZ ELEMENTARY", "IsLandmark": 2, "PointLocat": 1, "AdminType": 0, "AddressBui": null, "Address": "333 STAGECOACH TRAIL", "City": "SAN MARCOS", "State": "TX", "Zipcode": "78666", "GNIS_ID": null, "Foot_ID": null, "Complex_ID": null, "FType_1": 730, "FCode_1": 73003 }, "geometry": { "type": "Point", "coordinates": [ -97.968354563312403, 29.865703729343693 ] } },
{ "type": "Feature", "properties": { "OBJECTID_1": 29, "OBJECTID": 45, "Permanent_": "{E31DB30B-6E5C-43CE-A197-AC01A7B8C198}", "Source_Fea": "480005309121", "Source_Dat": "{092B06A5-744D-461B-BB91-876E463350D0}", "Source_D_1": "TNMC VWE DB Build - Vol Update Schools", "Source_Ori": "Oak Ridge National Laboratory, Geographic Information Sciences and Technology Group", "Data_Secur": 5, "Distributi": "E4", "LoadDate": "2015\/10\/30", "FType": 730, "FCode": 73002, "Name": "John H Wood Jr Charter School Hays County Juvenile Detention Center", "IsLandmark": 2, "PointLocat": 1, "AdminType": 0, "AddressBui": null, "Address": "2250 Clovis R Barker Road", "City": "San Marcos", "State": "TX", "Zipcode": "78666", "GNIS_ID": null, "Foot_ID": null, "Complex_ID": null, "FType_1": 730, "FCode_1": 73002 }, "geometry": { "type": "Point", "coordinates": [ -97.945843573821833, 29.832020169795044 ] } },
{ "type": "Feature", "properties": { "OBJECTID_1": 30, "OBJECTID": 47, "Permanent_": "{239429D4-4D36-465F-A564-95087B9A42F1}", "Source_Fea": "483897004450", "Source_Dat": "{092B06A5-744D-461B-BB91-876E463350D0}", "Source_D_1": "TNMC VWE DB Build - Vol Update Schools", "Source_Ori": "Oak Ridge National Laboratory, Geographic Information Sciences and Technology Group", "Data_Secur": 5, "Distributi": "E4", "LoadDate": "2016\/08\/12", "FType": 730, "FCode": 73004, "Name": "OWEN GOODNIGHT MIDDLE SCHOOL", "IsLandmark": 2, "PointLocat": 1, "AdminType": 0, "AddressBui": null, "Address": "1301 State Highway 123", "City": "SAN MARCOS", "State": "TX", "Zipcode": "78666", "GNIS_ID": null, "Foot_ID": null, "Complex_ID": null, "FType_1": 730, "FCode_1": 73004 }, "geometry": { "type": "Point", "coordinates": [ -97.937399154747141, 29.858859827419167 ] } },
{ "type": "Feature", "properties": { "OBJECTID_1": 31, "OBJECTID": 48, "Permanent_": "{96B50D48-10DA-4FEC-B34A-13B4B6C03C05}", "Source_Fea": "483897004453", "Source_Dat": "{092B06A5-744D-461B-BB91-876E463350D0}", "Source_D_1": "TNMC VWE DB Build - Vol Update Schools", "Source_Ori": "Oak Ridge National Laboratory, Geographic Information Sciences and Technology Group", "Data_Secur": 5, "Distributi": "E4", "LoadDate": "2016\/08\/12", "FType": 730, "FCode": 73003, "Name": "TRAVIS ELEMENTARY", "IsLandmark": 2, "PointLocat": 1, "AdminType": 0, "AddressBui": null, "Address": "1437 POST RD", "City": "SAN MARCOS", "State": "TX", "Zipcode": "78666", "GNIS_ID": null, "Foot_ID": null, "Complex_ID": null, "FType_1": 730, "FCode_1": 73003 }, "geometry": { "type": "Point", "coordinates": [ -97.92388815401506, 29.896390237019887 ] } },
{ "type": "Feature", "properties": { "OBJECTID_1": 32, "OBJECTID": 49, "Permanent_": "{6A9BAC8D-D629-430B-995E-FDDCD1B59D8A}", "Source_Fea": "483897008833", "Source_Dat": "{CC19ABE0-361F-4846-B852-AA57C04368C8}", "Source_D_1": "NSD TNMC VWE Database Build - Reviewed Schools", "Source_Ori": "Oak Ridge National Laboratory, Geographic Information Sciences and Technology Group", "Data_Secur": 5, "Distributi": "E4", "LoadDate": "2011\/12\/20", "FType": 730, "FCode": 73002, "Name": "HAYS CO JUVENILE JUSTICE ALTERNATIVE CENTER", "IsLandmark": 2, "PointLocat": 1, "AdminType": 0, "AddressBui": null, "Address": "4125 B FM 967", "City": "Buda", "State": "TX", "Zipcode": "78667", "GNIS_ID": null, "Foot_ID": null, "Complex_ID": null, "FType_1": 730, "FCode_1": 73002 }, "geometry": { "type": "Point", "coordinates": [ -97.891235498119727, 30.094339588101548 ] } },
{ "type": "Feature", "properties": { "OBJECTID_1": 33, "OBJECTID": 50, "Permanent_": "{3BC0953D-E1A4-4F81-9325-AD727945D746}", "Source_Fea": "480001006199", "Source_Dat": "{092B06A5-744D-461B-BB91-876E463350D0}", "Source_D_1": "TNMC VWE DB Build - Vol Update Schools", "Source_Ori": "Oak Ridge National Laboratory, Geographic Information Sciences and Technology Group", "Data_Secur": 5, "Distributi": "E4", "LoadDate": "2014\/06\/25", "FType": 730, "FCode": 73004, "Name": "R C Barton Middle School", "IsLandmark": 2, "PointLocat": 1, "AdminType": 0, "AddressBui": null, "Address": "4950 Jack C Hays Trail", "City": "Buda", "State": "TX", "Zipcode": "78610", "GNIS_ID": null, "Foot_ID": null, "Complex_ID": null, "FType_1": 730, "FCode_1": 73004 }, "geometry": { "type": "Point", "coordinates": [ -97.890947651213082, 30.027410163648199 ] } },
{ "type": "Feature", "properties": { "OBJECTID_1": 34, "OBJECTID": 51, "Permanent_": "{196C54D1-2C23-4889-B714-2B18579355E2}", "Source_Fea": "480001010806", "Source_Dat": "{092B06A5-744D-461B-BB91-876E463350D0}", "Source_D_1": "TNMC VWE DB Build - Vol Update Schools", "Source_Ori": "Oak Ridge National Laboratory, Geographic Information Sciences and Technology Group", "Data_Secur": 5, "Distributi": "E4", "LoadDate": "2016\/08\/12", "FType": 730, "FCode": 73003, "Name": "Negley Elementary School", "IsLandmark": 2, "PointLocat": 1, "AdminType": 0, "AddressBui": null, "Address": "5940 MCNAUGHTON", "City": "KYLE", "State": "TX", "Zipcode": "78640", "GNIS_ID": null, "Foot_ID": null, "Complex_ID": null, "FType_1": 730, "FCode_1": 73003 }, "geometry": { "type": "Point", "coordinates": [ -97.883373948548865, 30.011529860314852 ] } },
{ "type": "Feature", "properties": { "OBJECTID_1": 35, "OBJECTID": 52, "Permanent_": "{8E1867B4-5FD6-4BFB-95DA-7A17965BB9C2}", "Source_Fea": "480001009624", "Source_Dat": "{CC19ABE0-361F-4846-B852-AA57C04368C8}", "Source_D_1": "NSD TNMC VWE Database Build - Reviewed Schools", "Source_Ori": "Oak Ridge National Laboratory, Geographic Information Sciences and Technology Group", "Data_Secur": 5, "Distributi": "E4", "LoadDate": "2011\/12\/20", "FType": 730, "FCode": 73005, "Name": "LEHMAN HIGH SCHOOL", "IsLandmark": 2, "PointLocat": 1, "AdminType": 0, "AddressBui": null, "Address": "1700 LEHMAN RD", "City": "Kyle", "State": "TX", "Zipcode": "78640", "GNIS_ID": null, "Foot_ID": null, "Complex_ID": null, "FType_1": 730, "FCode_1": 73005 }, "geometry": { "type": "Point", "coordinates": [ -97.847637639665322, 29.995205158791123 ] } },
{ "type": "Feature", "properties": { "OBJECTID_1": 36, "OBJECTID": 61, "Permanent_": "{3C969928-5C8C-40AB-AFC1-97E820F2C393}", "Source_Fea": "483237007841", "Source_Dat": "{CC19ABE0-361F-4846-B852-AA57C04368C8}", "Source_D_1": "NSD TNMC VWE Database Build - Reviewed Schools", "Source_Ori": "Oak Ridge National Laboratory, Geographic Information Sciences and Technology Group", "Data_Secur": 5, "Distributi": "E4", "LoadDate": "2011\/12\/20", "FType": 730, "FCode": 73004, "Name": "MEMORIAL INT", "IsLandmark": 2, "PointLocat": 1, "AdminType": 0, "AddressBui": null, "Address": "1911 S WALNUT", "City": "New Braunfels", "State": "TX", "Zipcode": "78130", "GNIS_ID": null, "Foot_ID": null, "Complex_ID": null, "FType_1": 730, "FCode_1": 73004 }, "geometry": { "type": "Point", "coordinates": [ -98.119400065360708, 29.67266541947356 ] } },
{ "type": "Feature", "properties": { "OBJECTID_1": 37, "OBJECTID": 62, "Permanent_": "{E4B44934-007F-405C-9FD1-F3FDE0F64856}", "Source_Fea": "481473011913", "Source_Dat": "{CC19ABE0-361F-4846-B852-AA57C04368C8}", "Source_D_1": "NSD TNMC VWE Database Build - Reviewed Schools", "Source_Ori": "Oak Ridge National Laboratory, Geographic Information Sciences and Technology Group", "Data_Secur": 5, "Distributi": "E4", "LoadDate": "2011\/12\/20", "FType": 730, "FCode": 73002, "Name": "GARDEN RIDGE AREA EL", "IsLandmark": 2, "PointLocat": 1, "AdminType": 0, "AddressBui": null, "Address": "1404 IH 35 N", "City": "New Braunfels", "State": "TX", "Zipcode": "78130", "GNIS_ID": null, "Foot_ID": null, "Complex_ID": null, "FType_1": 730, "FCode_1": 73002 }, "geometry": { "type": "Point", "coordinates": [ -98.091397685954405, 29.704785092158318 ] } },
{ "type": "Feature", "properties": { "OBJECTID_1": 38, "OBJECTID": 64, "Permanent_": "{2F405026-54F4-48B9-BCC5-96C9BCD42E32}", "Source_Fea": "480013208279", "Source_Dat": "{CC19ABE0-361F-4846-B852-AA57C04368C8}", "Source_D_1": "NSD TNMC VWE Database Build - Reviewed Schools", "Source_Ori": "Oak Ridge National Laboratory, Geographic Information Sciences and Technology Group", "Data_Secur": 5, "Distributi": "E4", "LoadDate": "2011\/12\/20", "FType": 730, "FCode": 73005, "Name": "KATHERINE ANNE PORTER SCHOOL", "IsLandmark": 2, "PointLocat": 1, "AdminType": 0, "AddressBui": null, "Address": "515 FM 2325", "City": "Wimberley", "State": "TX", "Zipcode": "78676", "GNIS_ID": null, "Foot_ID": null, "Complex_ID": null, "FType_1": 730, "FCode_1": 73005 }, "geometry": { "type": "Point", "coordinates": [ -98.106911428319734, 30.002948275742369 ] } },
{ "type": "Feature", "properties": { "OBJECTID_1": 39, "OBJECTID": 65, "Permanent_": "{DC46C723-3D4C-498F-821C-859A402A9960}", "Source_Fea": "480000801508", "Source_Dat": "{092B06A5-744D-461B-BB91-876E463350D0}", "Source_D_1": "TNMC VWE DB Build - Vol Update Schools", "Source_Ori": "Oak Ridge National Laboratory, Geographic Information Sciences and Technology Group", "Data_Secur": 5, "Distributi": "E4", "LoadDate": "2016\/08\/12", "FType": 730, "FCode": 73004, "Name": "DRIPPING SPRINGS MIDDLE SCHOOL", "IsLandmark": 2, "PointLocat": 1, "AdminType": 0, "AddressBui": null, "Address": "111 Tiger Lane", "City": "DRIPPING SPRINGS", "State": "TX", "Zipcode": "78620", "GNIS_ID": null, "Foot_ID": null, "Complex_ID": null, "FType_1": 730, "FCode_1": 73004 }, "geometry": { "type": "Point", "coordinates": [ -98.115507715009016, 30.202100189472219 ] } },
{ "type": "Feature", "properties": { "OBJECTID_1": 40, "OBJECTID": 66, "Permanent_": "{B049040A-805A-4CE1-A4FC-8320D0646216}", "Source_Fea": "480000806094", "Source_Dat": "{092B06A5-744D-461B-BB91-876E463350D0}", "Source_D_1": "TNMC VWE DB Build - Vol Update Schools", "Source_Ori": "Oak Ridge National Laboratory, Geographic Information Sciences and Technology Group", "Data_Secur": 5, "Distributi": "E4", "LoadDate": "2016\/08\/12", "FType": 730, "FCode": 73005, "Name": "DRIPPING SPRINGS HIGH SCHOOL", "IsLandmark": 2, "PointLocat": 1, "AdminType": 0, "AddressBui": null, "Address": "940 Highway 290 West", "City": "DRIPPING SPRINGS", "State": "TX", "Zipcode": "78620", "GNIS_ID": null, "Foot_ID": null, "Complex_ID": null, "FType_1": 730, "FCode_1": 73005 }, "geometry": { "type": "Point", "coordinates": [ -98.10145411101837, 30.197027188454058 ] } },
{ "type": "Feature", "properties": { "OBJECTID_1": 41, "OBJECTID": 68, "Permanent_": "{765A3D1C-7A0F-49B8-9A95-1AAE8DCAFBC1}", "Source_Fea": "01328856", "Source_Dat": "{092B06A5-744D-461B-BB91-876E463350D0}", "Source_D_1": "TNMC VWE DB Build - Vol Update Schools", "Source_Ori": "Oak Ridge National Laboratory, Geographic Information Sciences and Technology Group", "Data_Secur": 5, "Distributi": "E4", "LoadDate": "2016\/08\/12", "FType": 730, "FCode": 73002, "Name": "WONDERLAND SCHOOL", "IsLandmark": 2, "PointLocat": 1, "AdminType": 0, "AddressBui": null, "Address": "302 Country Estates Dr", "City": "San Marcos", "State": "TX", "Zipcode": "78666", "GNIS_ID": null, "Foot_ID": null, "Complex_ID": null, "FType_1": 730, "FCode_1": 73002 }, "geometry": { "type": "Point", "coordinates": [ -97.974389865899582, 29.901505436027094 ] } },
{ "type": "Feature", "properties": { "OBJECTID_1": 42, "OBJECTID": 70, "Permanent_": "{700D900F-49E3-4F18-AC56-5A34B91BE9B3}", "Source_Fea": "01329703", "Source_Dat": "{092B06A5-744D-461B-BB91-876E463350D0}", "Source_D_1": "TNMC VWE DB Build - Vol Update Schools", "Source_Ori": "Oak Ridge National Laboratory, Geographic Information Sciences and Technology Group", "Data_Secur": 5, "Distributi": "E4", "LoadDate": "2016\/08\/12", "FType": 730, "FCode": 73004, "Name": "SAN MARCOS ADVENTIST JUNIOR ACADEMY", "IsLandmark": 2, "PointLocat": 1, "AdminType": 0, "AddressBui": null, "Address": "1523 OLD RANCH RD 12", "City": "SAN MARCOS", "State": "TX", "Zipcode": "78666", "GNIS_ID": null, "Foot_ID": null, "Complex_ID": null, "FType_1": 730, "FCode_1": 73004 }, "geometry": { "type": "Point", "coordinates": [ -97.960031262232917, 29.893866734862002 ] } },
{ "type": "Feature", "properties": { "OBJECTID_1": 43, "OBJECTID": 71, "Permanent_": "{C65A8597-84FE-4287-925E-ABEC8D2E6297}", "Source_Fea": "483897006322", "Source_Dat": "{092B06A5-744D-461B-BB91-876E463350D0}", "Source_D_1": "TNMC VWE DB Build - Vol Update Schools", "Source_Ori": "Oak Ridge National Laboratory, Geographic Information Sciences and Technology Group", "Data_Secur": 5, "Distributi": "E4", "LoadDate": "2015\/10\/30", "FType": 730, "FCode": 73003, "Name": "Dezavala Elementary School", "IsLandmark": 2, "PointLocat": 1, "AdminType": 0, "AddressBui": null, "Address": "621 De Zavala Drive", "City": "San Marcos", "State": "TX", "Zipcode": "78666", "GNIS_ID": null, "Foot_ID": null, "Complex_ID": null, "FType_1": 730, "FCode_1": 73003 }, "geometry": { "type": "Point", "coordinates": [ -97.935209655401252, 29.856059111938521 ] } },
{ "type": "Feature", "properties": { "OBJECTID_1": 44, "OBJECTID": 73, "Permanent_": "{17506C22-F9B9-4B15-A23C-B134724BA196}", "Source_Fea": "A9504038", "Source_Dat": "{092B06A5-744D-461B-BB91-876E463350D0}", "Source_D_1": "TNMC VWE DB Build - Vol Update Schools", "Source_Ori": "Oak Ridge National Laboratory, Geographic Information Sciences and Technology Group", "Data_Secur": 5, "Distributi": "E4", "LoadDate": "2016\/08\/12", "FType": 730, "FCode": 73002, "Name": "HILL COUNTRY CHRISTIAN SCHOOL OF SAN MARCOS", "IsLandmark": 2, "PointLocat": 1, "AdminType": 0, "AddressBui": null, "Address": "1401 Davis Ln", "City": "San Marcos", "State": "TX", "Zipcode": "78666", "GNIS_ID": null, "Foot_ID": null, "Complex_ID": null, "FType_1": 730, "FCode_1": 73002 }, "geometry": { "type": "Point", "coordinates": [ -97.907908349690558, 29.888198435709285 ] } },
{ "type": "Feature", "properties": { "OBJECTID_1": 45, "OBJECTID": 76, "Permanent_": "{45A5E15D-3C89-4788-B0BE-DFA791F5F0EC}", "Source_Fea": "480001010804", "Source_Dat": "{092B06A5-744D-461B-BB91-876E463350D0}", "Source_D_1": "TNMC VWE DB Build - Vol Update Schools", "Source_Ori": "Oak Ridge National Laboratory, Geographic Information Sciences and Technology Group", "Data_Secur": 5, "Distributi": "E4", "LoadDate": "2016\/08\/12", "FType": 730, "FCode": 73004, "Name": "CHAPA MIDDLE SCHOOL", "IsLandmark": 2, "PointLocat": 1, "AdminType": 0, "AddressBui": null, "Address": "3311 DACY LN", "City": "KYLE", "State": "TX", "Zipcode": "78640", "GNIS_ID": null, "Foot_ID": null, "Complex_ID": null, "FType_1": 730, "FCode_1": 73004 }, "geometry": { "type": "Point", "coordinates": [ -97.832987636769985, 30.020982163995711 ] } },
{ "type": "Feature", "properties": { "OBJECTID_1": 46, "OBJECTID": 77, "Permanent_": "{C8839FCA-D8FE-489E-A219-D93950B06BE9}", "Source_Fea": "481071011291", "Source_Dat": "{092B06A5-744D-461B-BB91-876E463350D0}", "Source_D_1": "TNMC VWE DB Build - Vol Update Schools", "Source_Ori": "Oak Ridge National Laboratory, Geographic Information Sciences and Technology Group", "Data_Secur": 5, "Distributi": "E4", "LoadDate": "2016\/08\/12", "FType": 730, "FCode": 73003, "Name": "Cibolo Creek Elementary", "IsLandmark": 2, "PointLocat": 1, "AdminType": 0, "AddressBui": null, "Address": "300 Herff Ranch Boulevard", "City": "Boerne", "State": "TX", "Zipcode": "78006", "GNIS_ID": null, "Foot_ID": null, "Complex_ID": null, "FType_1": 730, "FCode_1": 73003 }, "geometry": { "type": "Point", "coordinates": [ -98.697913639003218, 29.78307028666444 ] } },
{ "type": "Feature", "properties": { "OBJECTID_1": 47, "OBJECTID": 78, "Permanent_": "{035B42DC-6498-4198-987E-F8122631057A}", "Source_Fea": null, "Source_Dat": "{092B06A5-744D-461B-BB91-876E463350D0}", "Source_D_1": "TNMC VWE DB Build - Vol Update Schools", "Source_Ori": "Oak Ridge National Laboratory, Geographic Information Sciences and Technology Group", "Data_Secur": 5, "Distributi": "E4", "LoadDate": "2016\/07\/27", "FType": 730, "FCode": 73002, "Name": "Hill Country Montessori School", "IsLandmark": 0, "PointLocat": 1, "AdminType": 0, "AddressBui": null, "Address": "50 Stone Wall Drive", "City": "Boerne", "State": "TX", "Zipcode": "78006", "GNIS_ID": null, "Foot_ID": null, "Complex_ID": null, "FType_1": 730, "FCode_1": 73002 }, "geometry": { "type": "Point", "coordinates": [ -98.611797119341531, 29.811439194663137 ] } },
{ "type": "Feature", "properties": { "OBJECTID_1": 48, "OBJECTID": 80, "Permanent_": "{A549A754-2231-4A3D-96BE-D1E2A3E39880}", "Source_Fea": "481473000972", "Source_Dat": "{CC19ABE0-361F-4846-B852-AA57C04368C8}", "Source_D_1": "NSD TNMC VWE Database Build - Reviewed Schools", "Source_Ori": "Oak Ridge National Laboratory, Geographic Information Sciences and Technology Group", "Data_Secur": 5, "Distributi": "E4", "LoadDate": "2011\/12\/20", "FType": 730, "FCode": 73002, "Name": "STARTZVILLE EL", "IsLandmark": 2, "PointLocat": 1, "AdminType": 0, "AddressBui": null, "Address": "42111 FM 3159", "City": "Canyon Lake", "State": "TX", "Zipcode": "78133", "GNIS_ID": null, "Foot_ID": null, "Complex_ID": null, "FType_1": 730, "FCode_1": 73002 }, "geometry": { "type": "Point", "coordinates": [ -98.26898406116544, 29.841818503820946 ] } },
{ "type": "Feature", "properties": { "OBJECTID_1": 49, "OBJECTID": 84, "Permanent_": "{D420E8DA-5454-4E12-9195-1C772EEFF7D9}", "Source_Fea": "AA001045", "Source_Dat": "{CC19ABE0-361F-4846-B852-AA57C04368C8}", "Source_D_1": "NSD TNMC VWE Database Build - Reviewed Schools", "Source_Ori": "Oak Ridge National Laboratory, Geographic Information Sciences and Technology Group", "Data_Secur": 5, "Distributi": "E4", "LoadDate": "2011\/12\/20", "FType": 730, "FCode": 73002, "Name": "NEW BRAUNFELS CHRISTIAN ACADEMY", "IsLandmark": 2, "PointLocat": 1, "AdminType": 0, "AddressBui": null, "Address": null, "City": null, "State": "TX", "Zipcode": "-", "GNIS_ID": null, "Foot_ID": null, "Complex_ID": null, "FType_1": 730, "FCode_1": 73002 }, "geometry": { "type": "Point", "coordinates": [ -98.18264241781327, 29.719075186370787 ] } },
{ "type": "Feature", "properties": { "OBJECTID_1": 50, "OBJECTID": 85, "Permanent_": "{769CAD00-7562-4A07-8670-FA3B03804FF3}", "Source_Fea": "483237009177", "Source_Dat": "{CC19ABE0-361F-4846-B852-AA57C04368C8}", "Source_D_1": "NSD TNMC VWE Database Build - Reviewed Schools", "Source_Ori": "Oak Ridge National Laboratory, Geographic Information Sciences and Technology Group", "Data_Secur": 5, "Distributi": "E4", "LoadDate": "2011\/12\/20", "FType": 730, "FCode": 73002, "Name": "DISCIPLINE ALTERNATIVE EDUCATION PLACEMENT", "IsLandmark": 2, "PointLocat": 1, "AdminType": 0, "AddressBui": null, "Address": "902 W SAN ANTONIO", "City": "New Braunfels", "State": "TX", "Zipcode": "78130", "GNIS_ID": null, "Foot_ID": null, "Complex_ID": null, "FType_1": 730, "FCode_1": 73002 }, "geometry": { "type": "Point", "coordinates": [ -98.131853663016102, 29.695955088756421 ] } },
{ "type": "Feature", "properties": { "OBJECTID_1": 51, "OBJECTID": 86, "Permanent_": "{E9F77AC0-FB95-4CAA-A9A3-6579619079BB}", "Source_Fea": "483237003594", "Source_Dat": "{CC19ABE0-361F-4846-B852-AA57C04368C8}", "Source_D_1": "NSD TNMC VWE Database Build - Reviewed Schools", "Source_Ori": "Oak Ridge National Laboratory, Geographic Information Sciences and Technology Group", "Data_Secur": 5, "Distributi": "E4", "LoadDate": "2011\/12\/20", "FType": 730, "FCode": 73002, "Name": "LAMAR PRI", "IsLandmark": 2, "PointLocat": 1, "AdminType": 0, "AddressBui": null, "Address": "240 N CENTRAL AVE", "City": "New Braunfels", "State": "TX", "Zipcode": "78130", "GNIS_ID": null, "Foot_ID": null, "Complex_ID": null, "FType_1": 730, "FCode_1": 73002 }, "geometry": { "type": "Point", "coordinates": [ -98.11770198435903, 29.712992807871842 ] } },
{ "type": "Feature", "properties": { "OBJECTID_1": 52, "OBJECTID": 87, "Permanent_": "{090DFA13-1175-4067-94B4-73BD0248C413}", "Source_Fea": "481473009179", "Source_Dat": "{CC19ABE0-361F-4846-B852-AA57C04368C8}", "Source_D_1": "NSD TNMC VWE Database Build - Reviewed Schools", "Source_Ori": "Oak Ridge National Laboratory, Geographic Information Sciences and Technology Group", "Data_Secur": 5, "Distributi": "E4", "LoadDate": "2011\/12\/20", "FType": 730, "FCode": 73003, "Name": "HOFFMANN LANE ELEMENTARY SCHOOL", "IsLandmark": 2, "PointLocat": 1, "AdminType": 0, "AddressBui": null, "Address": "4600 FM 306", "City": "New Braunfels", "State": "TX", "Zipcode": "78132", "GNIS_ID": null, "Foot_ID": null, "Complex_ID": null, "FType_1": 730, "FCode_1": 73003 }, "geometry": { "type": "Point", "coordinates": [ -98.104415195404897, 29.791630601371196 ] } },
{ "type": "Feature", "properties": { "OBJECTID_1": 53, "OBJECTID": 88, "Permanent_": "{23A57ABA-847A-49C5-A219-BC66BDE4374E}", "Source_Fea": "480000907342", "Source_Dat": "{092B06A5-744D-461B-BB91-876E463350D0}", "Source_D_1": "TNMC VWE DB Build - Vol Update Schools", "Source_Ori": "Oak Ridge National Laboratory, Geographic Information Sciences and Technology Group", "Data_Secur": 5, "Distributi": "E4", "LoadDate": "2015\/03\/30", "FType": 730, "FCode": 73004, "Name": "Danforth Junior High School", "IsLandmark": 2, "PointLocat": 1, "AdminType": 0, "AddressBui": null, "Address": "200 Texan Boulevard", "City": "Wimberley", "State": "TX", "Zipcode": "78676", "GNIS_ID": null, "Foot_ID": null, "Complex_ID": null, "FType_1": 730, "FCode_1": 73004 }, "geometry": { "type": "Point", "coordinates": [ -98.113753453359152, 30.00313615041307 ] } },
{ "type": "Feature", "properties": { "OBJECTID_1": 54, "OBJECTID": 89, "Permanent_": "{D2169E46-65AB-4A71-806D-66CC0EF1816C}", "Source_Fea": "480000906499", "Source_Dat": "{092B06A5-744D-461B-BB91-876E463350D0}", "Source_D_1": "TNMC VWE DB Build - Vol Update Schools", "Source_Ori": "Oak Ridge National Laboratory, Geographic Information Sciences and Technology Group", "Data_Secur": 5, "Distributi": "E4", "LoadDate": "2015\/03\/30", "FType": 730, "FCode": 73003, "Name": "Scudder Primary School", "IsLandmark": 2, "PointLocat": 1, "AdminType": 0, "AddressBui": null, "Address": "400 Green Acres Drive", "City": "Wimberley", "State": "TX", "Zipcode": "78676", "GNIS_ID": "2006636", "Foot_ID": null, "Complex_ID": null, "FType_1": 730, "FCode_1": 73003 }, "geometry": { "type": "Point", "coordinates": [ -98.110638119953251, 30.002514526424306 ] } },
{ "type": "Feature", "properties": { "OBJECTID_1": 55, "OBJECTID": 91, "Permanent_": "{8EA88E5A-A3DC-4094-A254-5EBC1FF0B969}", "Source_Fea": "481473000968", "Source_Dat": "{CC19ABE0-361F-4846-B852-AA57C04368C8}", "Source_D_1": "NSD TNMC VWE Database Build - Reviewed Schools", "Source_Ori": "Oak Ridge National Laboratory, Geographic Information Sciences and Technology Group", "Data_Secur": 5, "Distributi": "E4", "LoadDate": "2011\/12\/20", "FType": 730, "FCode": 73004, "Name": "CANYON MIDDLE", "IsLandmark": 2, "PointLocat": 1, "AdminType": 0, "AddressBui": null, "Address": "2014 FM 1101", "City": "New Braunfels", "State": "TX", "Zipcode": "78130", "GNIS_ID": null, "Foot_ID": null, "Complex_ID": null, "FType_1": 730, "FCode_1": 73004 }, "geometry": { "type": "Point", "coordinates": [ -98.073251707100553, 29.7123578784134 ] } },
{ "type": "Feature", "properties": { "OBJECTID_1": 56, "OBJECTID": 92, "Permanent_": "{7BB5DF06-2DD5-44C3-8DC5-A551169BE86A}", "Source_Fea": "483897004448", "Source_Dat": "{092B06A5-744D-461B-BB91-876E463350D0}", "Source_D_1": "TNMC VWE DB Build - Vol Update Schools", "Source_Ori": "Oak Ridge National Laboratory, Geographic Information Sciences and Technology Group", "Data_Secur": 5, "Distributi": "E4", "LoadDate": "2015\/10\/30", "FType": 730, "FCode": 73003, "Name": "Bowie Elementary School", "IsLandmark": 2, "PointLocat": 1, "AdminType": 0, "AddressBui": null, "Address": "4020 Monterrey Oak", "City": "San Marcos", "State": "TX", "Zipcode": "78666", "GNIS_ID": "2006615", "Foot_ID": null, "Complex_ID": null, "FType_1": 730, "FCode_1": 73003 }, "geometry": { "type": "Point", "coordinates": [ -97.9414595209401, 29.820805371170991 ] } },
{ "type": "Feature", "properties": { "OBJECTID_1": 57, "OBJECTID": 93, "Permanent_": "{F163C7C1-20E3-4DCC-8625-B080C3ED0C48}", "Source_Fea": "480019408645", "Source_Dat": "{092B06A5-744D-461B-BB91-876E463350D0}", "Source_D_1": "TNMC VWE DB Build - Vol Update Schools", "Source_Ori": "Oak Ridge National Laboratory, Geographic Information Sciences and Technology Group", "Data_Secur": 5, "Distributi": "E4", "LoadDate": "2016\/08\/12", "FType": 730, "FCode": 73002, "Name": "TEXAS PREPARATORY SCHOOL", "IsLandmark": 2, "PointLocat": 1, "AdminType": 0, "AddressBui": null, "Address": "400 UHLAND RD", "City": "SAN MARCOS", "State": "TX", "Zipcode": "78666", "GNIS_ID": null, "Foot_ID": null, "Complex_ID": null, "FType_1": 730, "FCode_1": 73002 }, "geometry": { "type": "Point", "coordinates": [ -97.916579451880182, 29.896406236858411 ] } },
{ "type": "Feature", "properties": { "OBJECTID_1": 58, "OBJECTID": 94, "Permanent_": "{88894401-51AB-4AE9-B0DE-678217D06411}", "Source_Fea": "A9300989", "Source_Dat": "{092B06A5-744D-461B-BB91-876E463350D0}", "Source_D_1": "TNMC VWE DB Build - Vol Update Schools", "Source_Ori": "Oak Ridge National Laboratory, Geographic Information Sciences and Technology Group", "Data_Secur": 5, "Distributi": "E4", "LoadDate": "2014\/06\/25", "FType": 730, "FCode": 73003, "Name": "Saint Stephen's Episcopal School", "IsLandmark": 2, "PointLocat": 1, "AdminType": 0, "AddressBui": null, "Address": "6000 Farm Market 2337", "City": "Wimberley", "State": "TX", "Zipcode": "78676", "GNIS_ID": null, "Foot_ID": null, "Complex_ID": null, "FType_1": 730, "FCode_1": 73003 }, "geometry": { "type": "Point", "coordinates": [ -98.036321968184268, 30.032238099408801 ] } },
{ "type": "Feature", "properties": { "OBJECTID_1": 59, "OBJECTID": 95, "Permanent_": "{DFC9613A-1588-48CC-8382-D0431061776F}", "Source_Fea": "480000801507", "Source_Dat": "{092B06A5-744D-461B-BB91-876E463350D0}", "Source_D_1": "TNMC VWE DB Build - Vol Update Schools", "Source_Ori": "Oak Ridge National Laboratory, Geographic Information Sciences and Technology Group", "Data_Secur": 5, "Distributi": "E4", "LoadDate": "2016\/08\/12", "FType": 730, "FCode": 73003, "Name": "DRIPPING SPRINGS ELEMENTARY SCHOOL", "IsLandmark": 2, "PointLocat": 1, "AdminType": 0, "AddressBui": null, "Address": "29400 RANCH RD 12", "City": "Dripping Springs", "State": "TX", "Zipcode": "78620", "GNIS_ID": null, "Foot_ID": null, "Complex_ID": null, "FType_1": 730, "FCode_1": 73003 }, "geometry": { "type": "Point", "coordinates": [ -98.082597707318314, 30.215975193500412 ] } },
{ "type": "Feature", "properties": { "OBJECTID_1": 60, "OBJECTID": 96, "Permanent_": "{4D059106-20D3-47F0-9D86-E5D649081485}", "Source_Fea": "480001008836", "Source_Dat": "{092B06A5-744D-461B-BB91-876E463350D0}", "Source_D_1": "TNMC VWE DB Build - Vol Update Schools", "Source_Ori": "Oak Ridge National Laboratory, Geographic Information Sciences and Technology Group", "Data_Secur": 5, "Distributi": "E4", "LoadDate": "2014\/06\/25", "FType": 730, "FCode": 73004, "Name": "Dahlstrom Middle School", "IsLandmark": 2, "PointLocat": 1, "AdminType": 0, "AddressBui": null, "Address": "3600 Farm To Market 967", "City": "Buda", "State": "TX", "Zipcode": "78610", "GNIS_ID": null, "Foot_ID": null, "Complex_ID": null, "FType_1": 730, "FCode_1": 73004 }, "geometry": { "type": "Point", "coordinates": [ -97.882174911243112, 30.097277475375222 ] } },
{ "type": "Feature", "properties": { "OBJECTID_1": 61, "OBJECTID": 97, "Permanent_": "{9C08E617-50D6-4D71-B2E7-07DEEA154A8E}", "Source_Fea": "480001005245", "Source_Dat": "{092B06A5-744D-461B-BB91-876E463350D0}", "Source_D_1": "TNMC VWE DB Build - Vol Update Schools", "Source_Ori": "Oak Ridge National Laboratory, Geographic Information Sciences and Technology Group", "Data_Secur": 5, "Distributi": "E4", "LoadDate": "2016\/08\/12", "FType": 730, "FCode": 73003, "Name": "Kyle Elementary School", "IsLandmark": 2, "PointLocat": 1, "AdminType": 0, "AddressBui": null, "Address": "500 West Blanco Street", "City": "Kyle", "State": "TX", "Zipcode": "78640", "GNIS_ID": null, "Foot_ID": null, "Complex_ID": null, "FType_1": 730, "FCode_1": 73003 }, "geometry": { "type": "Point", "coordinates": [ -97.880060147357881, 29.991505757085065 ] } },
{ "type": "Feature", "properties": { "OBJECTID_1": 62, "OBJECTID": 98, "Permanent_": "{C672F8BE-60DA-443F-B52A-4E4B3C43C9F6}", "Source_Fea": "480001006346", "Source_Dat": "{092B06A5-744D-461B-BB91-876E463350D0}", "Source_D_1": "TNMC VWE DB Build - Vol Update Schools", "Source_Ori": "Oak Ridge National Laboratory, Geographic Information Sciences and Technology Group", "Data_Secur": 5, "Distributi": "E4", "LoadDate": "2016\/08\/12", "FType": 730, "FCode": 73003, "Name": "Tom Green Elementary School", "IsLandmark": 2, "PointLocat": 1, "AdminType": 0, "AddressBui": null, "Address": "1301 Old Goforth Road", "City": "Buda", "State": "TX", "Zipcode": "78610", "GNIS_ID": null, "Foot_ID": null, "Complex_ID": null, "FType_1": 730, "FCode_1": 73003 }, "geometry": { "type": "Point", "coordinates": [ -97.818619635187986, 30.064054773409111 ] } },
{ "type": "Feature", "properties": { "OBJECTID_1": 63, "OBJECTID": 99, "Permanent_": "{B7B517DF-DFA4-4E43-90C0-7110BA1EE088}", "Source_Fea": "480001010809", "Source_Dat": "{CC19ABE0-361F-4846-B852-AA57C04368C8}", "Source_D_1": "NSD TNMC VWE Database Build - Reviewed Schools", "Source_Ori": "Oak Ridge National Laboratory, Geographic Information Sciences and Technology Group", "Data_Secur": 5, "Distributi": "E4", "LoadDate": "2011\/12\/20", "FType": 730, "FCode": 73002, "Name": "CAMINO REAL ELEMENTARY SCHOOL", "IsLandmark": 2, "PointLocat": 1, "AdminType": 0, "AddressBui": null, "Address": "21003 IH 35", "City": "Kyle", "State": "TX", "Zipcode": "78640", "GNIS_ID": null, "Foot_ID": null, "Complex_ID": null, "FType_1": 730, "FCode_1": 73002 }, "geometry": { "type": "Point", "coordinates": [ -97.761891618203606, 30.005003163665094 ] } },
{ "type": "Feature", "properties": { "OBJECTID_1": 64, "OBJECTID": 100, "Permanent_": "{041C14CB-8511-477E-A5D6-7F997615850C}", "Source_Fea": "A0109508", "Source_Dat": "{CC19ABE0-361F-4846-B852-AA57C04368C8}", "Source_D_1": "NSD TNMC VWE Database Build - Reviewed Schools", "Source_Ori": "Oak Ridge National Laboratory, Geographic Information Sciences and Technology Group", "Data_Secur": 5, "Distributi": "E4", "LoadDate": "2011\/12\/20", "FType": 730, "FCode": 73002, "Name": "VANGUARD CHRISTIAN INSTITUTE", "IsLandmark": 2, "PointLocat": 1, "AdminType": 0, "AddressBui": null, "Address": null, "City": null, "State": "TX", "Zipcode": "-", "GNIS_ID": null, "Foot_ID": null, "Complex_ID": null, "FType_1": 730, "FCode_1": 73002 }, "geometry": { "type": "Point", "coordinates": [ -98.791236029619029, 29.872748273613979 ] } },
{ "type": "Feature", "properties": { "OBJECTID_1": 65, "OBJECTID": 102, "Permanent_": "{2785E8FA-A7C0-486D-9A07-F82EB2867701}", "Source_Fea": "481473009180", "Source_Dat": "{CC19ABE0-361F-4846-B852-AA57C04368C8}", "Source_D_1": "NSD TNMC VWE Database Build - Reviewed Schools", "Source_Ori": "Oak Ridge National Laboratory, Geographic Information Sciences and Technology Group", "Data_Secur": 5, "Distributi": "E4", "LoadDate": "2011\/12\/20", "FType": 730, "FCode": 73003, "Name": "REBECCA CREEK ELEMENTARY SCHOOL", "IsLandmark": 2, "PointLocat": 1, "AdminType": 0, "AddressBui": null, "Address": "125 QUEST AVE", "City": "Spring Branch", "State": "TX", "Zipcode": "78070", "GNIS_ID": null, "Foot_ID": null, "Complex_ID": null, "FType_1": 730, "FCode_1": 73003 }, "geometry": { "type": "Point", "coordinates": [ -98.298643145564654, 29.935567415004243 ] } },
{ "type": "Feature", "properties": { "OBJECTID_1": 66, "OBJECTID": 103, "Permanent_": "{62C90CB7-A465-4B58-9878-E6F73EB515CC}", "Source_Fea": "482484002777", "Source_Dat": "{092B06A5-744D-461B-BB91-876E463350D0}", "Source_D_1": "TNMC VWE DB Build - Vol Update Schools", "Source_Ori": "Oak Ridge National Laboratory, Geographic Information Sciences and Technology Group", "Data_Secur": 5, "Distributi": "E4", "LoadDate": "2016\/08\/12", "FType": 730, "FCode": 73005, "Name": "LYNDON B JOHNSON High School", "IsLandmark": 2, "PointLocat": 1, "AdminType": 0, "AddressBui": null, "Address": "505 NUGENT AVE.", "City": "JOHNSON CITY", "State": "TX", "Zipcode": "78636", "GNIS_ID": null, "Foot_ID": null, "Complex_ID": null, "FType_1": 730, "FCode_1": 73005 }, "geometry": { "type": "Point", "coordinates": [ -98.411467092832027, 30.28138379422677 ] } },
{ "type": "Feature", "properties": { "OBJECTID_1": 67, "OBJECTID": 104, "Permanent_": "{D453CBEE-FBE7-47D8-A668-E1C8DC9E5D68}", "Source_Fea": "482484006125", "Source_Dat": "{092B06A5-744D-461B-BB91-876E463350D0}", "Source_D_1": "TNMC VWE DB Build - Vol Update Schools", "Source_Ori": "Oak Ridge National Laboratory, Geographic Information Sciences and Technology Group", "Data_Secur": 5, "Distributi": "E4", "LoadDate": "2016\/08\/12", "FType": 730, "FCode": 73004, "Name": "LYNDON B JOHNSON MIDDLE SCHOOL", "IsLandmark": 2, "PointLocat": 1, "AdminType": 0, "AddressBui": null, "Address": "303 N LBJ DR", "City": "JOHNSON CITY", "State": "TX", "Zipcode": "78636", "GNIS_ID": null, "Foot_ID": null, "Complex_ID": null, "FType_1": 730, "FCode_1": 73004 }, "geometry": { "type": "Point", "coordinates": [ -98.407969691448045, 30.279283993261743 ] } },
{ "type": "Feature", "properties": { "OBJECTID_1": 68, "OBJECTID": 107, "Permanent_": "{F8AD6256-21D9-4215-9893-A41BE464536E}", "Source_Fea": "481473011820", "Source_Dat": "{CC19ABE0-361F-4846-B852-AA57C04368C8}", "Source_D_1": "NSD TNMC VWE Database Build - Reviewed Schools", "Source_Ori": "Oak Ridge National Laboratory, Geographic Information Sciences and Technology Group", "Data_Secur": 5, "Distributi": "E4", "LoadDate": "2011\/12\/20", "FType": 730, "FCode": 73002, "Name": "KINDER TRACT AREA EL", "IsLandmark": 2, "PointLocat": 1, "AdminType": 0, "AddressBui": null, "Address": "1404 IH 35 N", "City": "New Braunfels", "State": "TX", "Zipcode": "78130", "GNIS_ID": null, "Foot_ID": null, "Complex_ID": null, "FType_1": 730, "FCode_1": 73002 }, "geometry": { "type": "Point", "coordinates": [ -98.091397685954405, 29.704785092158318 ] } },
{ "type": "Feature", "properties": { "OBJECTID_1": 69, "OBJECTID": 110, "Permanent_": "{A84E4F50-4FC0-4FB1-901D-D618193104BB}", "Source_Fea": "481473011768", "Source_Dat": "{CC19ABE0-361F-4846-B852-AA57C04368C8}", "Source_D_1": "NSD TNMC VWE Database Build - Reviewed Schools", "Source_Ori": "Oak Ridge National Laboratory, Geographic Information Sciences and Technology Group", "Data_Secur": 5, "Distributi": "E4", "LoadDate": "2011\/12\/20", "FType": 730, "FCode": 73002, "Name": "OAK CREEK ESTATES EL", "IsLandmark": 2, "PointLocat": 1, "AdminType": 0, "AddressBui": null, "Address": "1404 IH 35 N", "City": "New Braunfels", "State": "TX", "Zipcode": "78130", "GNIS_ID": null, "Foot_ID": null, "Complex_ID": null, "FType_1": 730, "FCode_1": 73002 }, "geometry": { "type": "Point", "coordinates": [ -98.071330261482331, 29.749574444405141 ] } },
{ "type": "Feature", "properties": { "OBJECTID_1": 70, "OBJECTID": 111, "Permanent_": "{1DDB50FC-2E6A-464D-A1DF-E0A0E21F9160}", "Source_Fea": "01328302", "Source_Dat": "{092B06A5-744D-461B-BB91-876E463350D0}", "Source_D_1": "TNMC VWE DB Build - Vol Update Schools", "Source_Ori": "Oak Ridge National Laboratory, Geographic Information Sciences and Technology Group", "Data_Secur": 5, "Distributi": "E4", "LoadDate": "2016\/08\/12", "FType": 730, "FCode": 73002, "Name": "SAN MARCOS ACADEMY", "IsLandmark": 2, "PointLocat": 1, "AdminType": 0, "AddressBui": null, "Address": "2801 Branch Rd 12", "City": "San Marcos", "State": "TX", "Zipcode": "78666", "GNIS_ID": null, "Foot_ID": null, "Complex_ID": null, "FType_1": 730, "FCode_1": 73002 }, "geometry": { "type": "Point", "coordinates": [ -98.002947672896767, 29.898927134579651 ] } },
{ "type": "Feature", "properties": { "OBJECTID_1": 71, "OBJECTID": 114, "Permanent_": "{98991177-7DD1-4E9C-BC26-2DDB25260AF0}", "Source_Fea": "480001008834", "Source_Dat": "{CC19ABE0-361F-4846-B852-AA57C04368C8}", "Source_D_1": "NSD TNMC VWE Database Build - Reviewed Schools", "Source_Ori": "Oak Ridge National Laboratory, Geographic Information Sciences and Technology Group", "Data_Secur": 5, "Distributi": "E4", "LoadDate": "2011\/12\/20", "FType": 730, "FCode": 73005, "Name": "HAYS CO JUVENILE JUSTICE ALT ED PROG", "IsLandmark": 2, "PointLocat": 1, "AdminType": 0, "AddressBui": null, "Address": "4125 B FM 967", "City": "Buda", "State": "TX", "Zipcode": "78610", "GNIS_ID": null, "Foot_ID": null, "Complex_ID": null, "FType_1": 730, "FCode_1": 73005 }, "geometry": { "type": "Point", "coordinates": [ -97.891150422254157, 30.094632365091627 ] } },
{ "type": "Feature", "properties": { "OBJECTID_1": 72, "OBJECTID": 115, "Permanent_": "{1206B574-6DBF-4364-B823-25F71862C8C0}", "Source_Fea": "480001008835", "Source_Dat": "{092B06A5-744D-461B-BB91-876E463350D0}", "Source_D_1": "TNMC VWE DB Build - Vol Update Schools", "Source_Ori": "Oak Ridge National Laboratory, Geographic Information Sciences and Technology Group", "Data_Secur": 5, "Distributi": "E4", "LoadDate": "2014\/06\/25", "FType": 730, "FCode": 73005, "Name": "Academy at Hays", "IsLandmark": 2, "PointLocat": 1, "AdminType": 0, "AddressBui": null, "Address": "4950 Jack C Hays Trail", "City": "Buda", "State": "TX", "Zipcode": "78610", "GNIS_ID": null, "Foot_ID": null, "Complex_ID": null, "FType_1": 730, "FCode_1": 73005 }, "geometry": { "type": "Point", "coordinates": [ -97.890126492843308, 30.030434887659965 ] } },
{ "type": "Feature", "properties": { "OBJECTID_1": 73, "OBJECTID": 116, "Permanent_": "{E192C108-786D-4A2E-946E-7A73DF5768C1}", "Source_Fea": "480001008839", "Source_Dat": "{CC19ABE0-361F-4846-B852-AA57C04368C8}", "Source_D_1": "NSD TNMC VWE Database Build - Reviewed Schools", "Source_Ori": "Oak Ridge National Laboratory, Geographic Information Sciences and Technology Group", "Data_Secur": 5, "Distributi": "E4", "LoadDate": "2011\/12\/20", "FType": 730, "FCode": 73002, "Name": "SUSIE FUENTES EL", "IsLandmark": 2, "PointLocat": 1, "AdminType": 0, "AddressBui": null, "Address": "901 GOFORTH", "City": "Kyle", "State": "TX", "Zipcode": "78640", "GNIS_ID": null, "Foot_ID": null, "Complex_ID": null, "FType_1": 730, "FCode_1": 73002 }, "geometry": { "type": "Point", "coordinates": [ -97.848331416261829, 29.99528097703552 ] } },
{ "type": "Feature", "properties": { "OBJECTID_1": 74, "OBJECTID": 118, "Permanent_": "{1D49E5BD-6173-40D3-B0B1-23E9E82CF1DD}", "Source_Fea": "481479000979", "Source_Dat": "{092B06A5-744D-461B-BB91-876E463350D0}", "Source_D_1": "TNMC VWE DB Build - Vol Update Schools", "Source_Ori": "Oak Ridge National Laboratory, Geographic Information Sciences and Technology Group", "Data_Secur": 5, "Distributi": "E4", "LoadDate": "2016\/08\/12", "FType": 730, "FCode": 73005, "Name": "Comfort High School", "IsLandmark": 2, "PointLocat": 1, "AdminType": 0, "AddressBui": null, "Address": "143 Highway 87 North", "City": "Comfort", "State": "TX", "Zipcode": "78013", "GNIS_ID": null, "Foot_ID": null, "Complex_ID": null, "FType_1": 730, "FCode_1": 73005 }, "geometry": { "type": "Point", "coordinates": [ -98.902797398880807, 29.994169120908282 ] } },
{ "type": "Feature", "properties": { "OBJECTID_1": 75, "OBJECTID": 119, "Permanent_": "{DB448A04-1EFF-48EF-87F4-32576056D49C}", "Source_Fea": "481071000537", "Source_Dat": "{092B06A5-744D-461B-BB91-876E463350D0}", "Source_D_1": "TNMC VWE DB Build - Vol Update Schools", "Source_Ori": "Oak Ridge National Laboratory, Geographic Information Sciences and Technology Group", "Data_Secur": 5, "Distributi": "E4", "LoadDate": "2015\/12\/07", "FType": 730, "FCode": 73004, "Name": "Boerne Middle School North", "IsLandmark": 2, "PointLocat": 1, "AdminType": 0, "AddressBui": null, "Address": "240 West Johns Road", "City": "Boerne", "State": "TX", "Zipcode": "78006", "GNIS_ID": null, "Foot_ID": null, "Complex_ID": null, "FType_1": 730, "FCode_1": 73004 }, "geometry": { "type": "Point", "coordinates": [ -98.73649478590562, 29.796113944802755 ] } },
{ "type": "Feature", "properties": { "OBJECTID_1": 76, "OBJECTID": 120, "Permanent_": "{D30F7E12-3B9E-4740-B221-3566D37F19D2}", "Source_Fea": "481071006367", "Source_Dat": "{092B06A5-744D-461B-BB91-876E463350D0}", "Source_D_1": "TNMC VWE DB Build - Vol Update Schools", "Source_Ori": "Oak Ridge National Laboratory, Geographic Information Sciences and Technology Group", "Data_Secur": 5, "Distributi": "E4", "LoadDate": "2015\/12\/07", "FType": 730, "FCode": 73002, "Name": "Fabra Elementary School", "IsLandmark": 2, "PointLocat": 1, "AdminType": 0, "AddressBui": null, "Address": "238 Lomann Street", "City": "Boerne", "State": "TX", "Zipcode": "78006", "GNIS_ID": "2007019", "Foot_ID": null, "Complex_ID": null, "FType_1": 730, "FCode_1": 73002 }, "geometry": { "type": "Point", "coordinates": [ -98.736051906670127, 29.794776715872786 ] } },
{ "type": "Feature", "properties": { "OBJECTID_1": 77, "OBJECTID": 123, "Permanent_": "{4A162CEF-1C2D-4344-AD5B-602A18CFFB73}", "Source_Fea": "481032000514", "Source_Dat": "{CC19ABE0-361F-4846-B852-AA57C04368C8}", "Source_D_1": "NSD TNMC VWE Database Build - Reviewed Schools", "Source_Ori": "Oak Ridge National Laboratory, Geographic Information Sciences and Technology Group", "Data_Secur": 5, "Distributi": "E4", "LoadDate": "2011\/12\/20", "FType": 730, "FCode": 73002, "Name": "BLANCO EL", "IsLandmark": 2, "PointLocat": 1, "AdminType": 0, "AddressBui": null, "Address": "814 ELEVENTH ST", "City": "Blanco", "State": "TX", "Zipcode": "78606", "GNIS_ID": null, "Foot_ID": null, "Complex_ID": null, "FType_1": 730, "FCode_1": 73002 }, "geometry": { "type": "Point", "coordinates": [ -98.421765155837249, 30.10535137646491 ] } },
{ "type": "Feature", "properties": { "OBJECTID_1": 78, "OBJECTID": 125, "Permanent_": "{45D2784F-D4B1-4B32-B4E0-EE0154E464ED}", "Source_Fea": "483237021191", "Source_Dat": "{CC19ABE0-361F-4846-B852-AA57C04368C8}", "Source_D_1": "NSD TNMC VWE Database Build - Reviewed Schools", "Source_Ori": "Oak Ridge National Laboratory, Geographic Information Sciences and Technology Group", "Data_Secur": 5, "Distributi": "E4", "LoadDate": "2011\/12\/20", "FType": 730, "FCode": 73004, "Name": "OAKRUN SCHOOL", "IsLandmark": 2, "PointLocat": 1, "AdminType": 0, "AddressBui": null, "Address": "415 TIMBER HOLLOW", "City": "New Braunfels", "State": "TX", "Zipcode": "78132", "GNIS_ID": null, "Foot_ID": null, "Complex_ID": null, "FType_1": 730, "FCode_1": 73004 }, "geometry": { "type": "Point", "coordinates": [ -98.173970369536903, 29.724505259610112 ] } },
{ "type": "Feature", "properties": { "OBJECTID_1": 79, "OBJECTID": 126, "Permanent_": "{994F6EB0-8556-44A2-96B4-4838D2253173}", "Source_Fea": "481473006957", "Source_Dat": "{CC19ABE0-361F-4846-B852-AA57C04368C8}", "Source_D_1": "NSD TNMC VWE Database Build - Reviewed Schools", "Source_Ori": "Oak Ridge National Laboratory, Geographic Information Sciences and Technology Group", "Data_Secur": 5, "Distributi": "E4", "LoadDate": "2011\/12\/20", "FType": 730, "FCode": 73005, "Name": "MEMORIAL HIGH SCHOOL", "IsLandmark": 2, "PointLocat": 1, "AdminType": 0, "AddressBui": null, "Address": "1419 N BUSINESS 35", "City": "New Braunfels", "State": "TX", "Zipcode": "78130", "GNIS_ID": null, "Foot_ID": null, "Complex_ID": null, "FType_1": 730, "FCode_1": 73005 }, "geometry": { "type": "Point", "coordinates": [ -98.098697314829167, 29.70689886139337 ] } },
{ "type": "Feature", "properties": { "OBJECTID_1": 80, "OBJECTID": 128, "Permanent_": "{5308AA4E-A821-4363-9602-F105422820CF}", "Source_Fea": "480025910529", "Source_Dat": "{CC19ABE0-361F-4846-B852-AA57C04368C8}", "Source_D_1": "NSD TNMC VWE Database Build - Reviewed Schools", "Source_Ori": "Oak Ridge National Laboratory, Geographic Information Sciences and Technology Group", "Data_Secur": 5, "Distributi": "E4", "LoadDate": "2011\/12\/20", "FType": 730, "FCode": 73002, "Name": "TRINITY CHARTER SCHOOL", "IsLandmark": 2, "PointLocat": 1, "AdminType": 0, "AddressBui": null, "Address": "650 SCARBOROUGH RD", "City": "Canyon Lake", "State": "TX", "Zipcode": "78133", "GNIS_ID": null, "Foot_ID": null, "Complex_ID": null, "FType_1": 730, "FCode_1": 73002 }, "geometry": { "type": "Point", "coordinates": [ -98.180285796552255, 29.864603558107774 ] } },
{ "type": "Feature", "properties": { "OBJECTID_1": 81, "OBJECTID": 129, "Permanent_": "{C9D20E61-3CF2-4F16-A0CB-722B9EF7C16A}", "Source_Fea": "480000905246", "Source_Dat": "{CC19ABE0-361F-4846-B852-AA57C04368C8}", "Source_D_1": "NSD TNMC VWE Database Build - Reviewed Schools", "Source_Ori": "Oak Ridge National Laboratory, Geographic Information Sciences and Technology Group", "Data_Secur": 5, "Distributi": "E4", "LoadDate": "2011\/12\/20", "FType": 730, "FCode": 73002, "Name": "BOWEN INT", "IsLandmark": 2, "PointLocat": 1, "AdminType": 0, "AddressBui": null, "Address": "14501 RANCH RD 12 N", "City": "Wimberley", "State": "TX", "Zipcode": "78676", "GNIS_ID": null, "Foot_ID": null, "Complex_ID": null, "FType_1": 730, "FCode_1": 73002 }, "geometry": { "type": "Point", "coordinates": [ -98.102728804690571, 30.002094681524397 ] } },
{ "type": "Feature", "properties": { "OBJECTID_1": 82, "OBJECTID": 132, "Permanent_": "{22A02D85-BE36-4A6C-9F67-AE0A2564A721}", "Source_Fea": "A9504180", "Source_Dat": "{CC19ABE0-361F-4846-B852-AA57C04368C8}", "Source_D_1": "NSD TNMC VWE Database Build - Reviewed Schools", "Source_Ori": "Oak Ridge National Laboratory, Geographic Information Sciences and Technology Group", "Data_Secur": 5, "Distributi": "E4", "LoadDate": "2011\/12\/20", "FType": 730, "FCode": 73003, "Name": "THE MASTER S SCHOOL", "IsLandmark": 2, "PointLocat": 1, "AdminType": 0, "AddressBui": null, "Address": "2801 RANCH RD 12", "City": "San Marcos", "State": "TX", "Zipcode": "78666", "GNIS_ID": null, "Foot_ID": null, "Complex_ID": null, "FType_1": 730, "FCode_1": 73003 }, "geometry": { "type": "Point", "coordinates": [ -98.002947672896767, 29.898927134579651 ] } },
{ "type": "Feature", "properties": { "OBJECTID_1": 83, "OBJECTID": 134, "Permanent_": "{7298BE32-F87B-4957-8035-06FAA75048FC}", "Source_Fea": null, "Source_Dat": "{092B06A5-744D-461B-BB91-876E463350D0}", "Source_D_1": "TNMC VWE DB Build - Vol Update Schools", "Source_Ori": "Oak Ridge National Laboratory, Geographic Information Sciences and Technology Group", "Data_Secur": 5, "Distributi": "E4", "LoadDate": "2016\/07\/27", "FType": 730, "FCode": 73002, "Name": "SAN MARCOS TREATMENT CENTER", "IsLandmark": 0, "PointLocat": 1, "AdminType": 0, "AddressBui": null, "Address": "120 BERT BROWN RD", "City": "San Marcos", "State": "TX", "Zipcode": "78666", "GNIS_ID": null, "Foot_ID": null, "Complex_ID": null, "FType_1": 730, "FCode_1": 73002 }, "geometry": { "type": "Point", "coordinates": [ -97.927995654575739, 29.897494736692806 ] } },
{ "type": "Feature", "properties": { "OBJECTID_1": 84, "OBJECTID": 135, "Permanent_": "{47FACD8F-77C6-4D00-99D8-C41746E36633}", "Source_Fea": "480007108932", "Source_Dat": "{CC19ABE0-361F-4846-B852-AA57C04368C8}", "Source_D_1": "NSD TNMC VWE Database Build - Reviewed Schools", "Source_Ori": "Oak Ridge National Laboratory, Geographic Information Sciences and Technology Group", "Data_Secur": 5, "Distributi": "E4", "LoadDate": "2011\/12\/20", "FType": 730, "FCode": 73002, "Name": "PATHFINDER CAMP", "IsLandmark": 2, "PointLocat": 1, "AdminType": 0, "AddressBui": null, "Address": "20800 FM 150 WEST", "City": "Driftwood", "State": "TX", "Zipcode": "78713", "GNIS_ID": null, "Foot_ID": null, "Complex_ID": null, "FType_1": 730, "FCode_1": 73002 }, "geometry": { "type": "Point", "coordinates": [ -98.060533347236174, 30.150890203020481 ] } },
{ "type": "Feature", "properties": { "OBJECTID_1": 85, "OBJECTID": 136, "Permanent_": "{53276BD9-A80E-45EF-986A-7838B3050CED}", "Source_Fea": "480001010807", "Source_Dat": "{092B06A5-744D-461B-BB91-876E463350D0}", "Source_D_1": "TNMC VWE DB Build - Vol Update Schools", "Source_Ori": "Oak Ridge National Laboratory, Geographic Information Sciences and Technology Group", "Data_Secur": 5, "Distributi": "E4", "LoadDate": "2016\/08\/12", "FType": 730, "FCode": 73003, "Name": "SCIENCE HALL ELEMENTARY SCHOOL", "IsLandmark": 2, "PointLocat": 1, "AdminType": 0, "AddressBui": null, "Address": "1510 BEBEE RD", "City": "KYLE", "State": "TX", "Zipcode": "78640", "GNIS_ID": null, "Foot_ID": null, "Complex_ID": null, "FType_1": 730, "FCode_1": 73003 }, "geometry": { "type": "Point", "coordinates": [ -97.838337637971563, 30.014990162865786 ] } },
{ "type": "Feature", "properties": { "OBJECTID_1": 86, "OBJECTID": 138, "Permanent_": "{CE07BCF6-95CB-4B5A-AA37-E057527447B7}", "Source_Fea": "481479004860", "Source_Dat": "{092B06A5-744D-461B-BB91-876E463350D0}", "Source_D_1": "TNMC VWE DB Build - Vol Update Schools", "Source_Ori": "Oak Ridge National Laboratory, Geographic Information Sciences and Technology Group", "Data_Secur": 5, "Distributi": "E4", "LoadDate": "2016\/08\/12", "FType": 730, "FCode": 73004, "Name": "Comfort Middle School", "IsLandmark": 2, "PointLocat": 1, "AdminType": 0, "AddressBui": null, "Address": "216 High Street", "City": "Comfort", "State": "TX", "Zipcode": "78013", "GNIS_ID": null, "Foot_ID": null, "Complex_ID": null, "FType_1": 730, "FCode_1": 73004 }, "geometry": { "type": "Point", "coordinates": [ -98.915138800715056, 29.971204816449188 ] } },
{ "type": "Feature", "properties": { "OBJECTID_1": 87, "OBJECTID": 140, "Permanent_": "{7FDED13F-0354-4C97-8097-FFFF6539F775}", "Source_Fea": null, "Source_Dat": "{092B06A5-744D-461B-BB91-876E463350D0}", "Source_D_1": "TNMC VWE DB Build - Vol Update Schools", "Source_Ori": "Oak Ridge National Laboratory, Geographic Information Sciences and Technology Group", "Data_Secur": 5, "Distributi": "E4", "LoadDate": "2016\/07\/27", "FType": 730, "FCode": 73005, "Name": "Boerne - Samuel V. Champion High School", "IsLandmark": 0, "PointLocat": 1, "AdminType": 0, "AddressBui": null, "Address": "201 Charger Boulevard", "City": "Boerne", "State": "TX", "Zipcode": "78006", "GNIS_ID": null, "Foot_ID": null, "Complex_ID": null, "FType_1": 730, "FCode_1": 73005 }, "geometry": { "type": "Point", "coordinates": [ -98.704637040766784, 29.785338086383604 ] } },
{ "type": "Feature", "properties": { "OBJECTID_1": 88, "OBJECTID": 141, "Permanent_": "{B834EF02-1BEF-45FB-A6C3-2317CFFDE913}", "Source_Fea": "481071008859", "Source_Dat": "{092B06A5-744D-461B-BB91-876E463350D0}", "Source_D_1": "TNMC VWE DB Build - Vol Update Schools", "Source_Ori": "Oak Ridge National Laboratory, Geographic Information Sciences and Technology Group", "Data_Secur": 5, "Distributi": "E4", "LoadDate": "2016\/08\/12", "FType": 730, "FCode": 73004, "Name": "Boerne Middle School South", "IsLandmark": 2, "PointLocat": 1, "AdminType": 0, "AddressBui": null, "Address": "10 Cascade Caverns Road", "City": "Boerne", "State": "TX", "Zipcode": "78006", "GNIS_ID": null, "Foot_ID": null, "Complex_ID": null, "FType_1": 730, "FCode_1": 73004 }, "geometry": { "type": "Point", "coordinates": [ -98.703591739866852, 29.760260781609816 ] } },
{ "type": "Feature", "properties": { "OBJECTID_1": 89, "OBJECTID": 142, "Permanent_": "{DF77BC28-EEB9-4042-8BBE-93F5CDA283A9}", "Source_Fea": "02060126", "Source_Dat": "{CC19ABE0-361F-4846-B852-AA57C04368C8}", "Source_D_1": "NSD TNMC VWE Database Build - Reviewed Schools", "Source_Ori": "Oak Ridge National Laboratory, Geographic Information Sciences and Technology Group", "Data_Secur": 5, "Distributi": "E4", "LoadDate": "2011\/12\/20", "FType": 730, "FCode": 73002, "Name": "BRACKEN CHRISTIAN SCHOOL", "IsLandmark": 2, "PointLocat": 1, "AdminType": 0, "AddressBui": null, "Address": null, "City": null, "State": "TX", "Zipcode": "-", "GNIS_ID": null, "Foot_ID": null, "Complex_ID": null, "FType_1": 730, "FCode_1": 73002 }, "geometry": { "type": "Point", "coordinates": [ -98.428324037424375, 29.793620805555804 ] } },
{ "type": "Feature", "properties": { "OBJECTID_1": 90, "OBJECTID": 143, "Permanent_": "{8442A6C4-725D-4D7F-83BC-E347CD504934}", "Source_Fea": "481473021192", "Source_Dat": "{CC19ABE0-361F-4846-B852-AA57C04368C8}", "Source_D_1": "NSD TNMC VWE Database Build - Reviewed Schools", "Source_Ori": "Oak Ridge National Laboratory, Geographic Information Sciences and Technology Group", "Data_Secur": 5, "Distributi": "E4", "LoadDate": "2011\/12\/20", "FType": 730, "FCode": 73002, "Name": "BILL BROWN ELEMENTARY SCHOOL", "IsLandmark": 2, "PointLocat": 1, "AdminType": 0, "AddressBui": null, "Address": "20410 HWY 46 W", "City": "Spring Branch", "State": "TX", "Zipcode": "78070", "GNIS_ID": null, "Foot_ID": null, "Complex_ID": null, "FType_1": 730, "FCode_1": 73002 }, "geometry": { "type": "Point", "coordinates": [ -98.424447702199643, 29.798980466375497 ] } },
{ "type": "Feature", "properties": { "OBJECTID_1": 91, "OBJECTID": 144, "Permanent_": "{06FFAF15-D132-40CE-8E02-B3B7FFBC5D1B}", "Source_Fea": "481032000515", "Source_Dat": "{CC19ABE0-361F-4846-B852-AA57C04368C8}", "Source_D_1": "NSD TNMC VWE Database Build - Reviewed Schools", "Source_Ori": "Oak Ridge National Laboratory, Geographic Information Sciences and Technology Group", "Data_Secur": 5, "Distributi": "E4", "LoadDate": "2011\/12\/20", "FType": 730, "FCode": 73005, "Name": "BLANCO H S", "IsLandmark": 2, "PointLocat": 1, "AdminType": 0, "AddressBui": null, "Address": "1215 FOURTH ST", "City": "Blanco", "State": "TX", "Zipcode": "78606", "GNIS_ID": null, "Foot_ID": null, "Complex_ID": null, "FType_1": 730, "FCode_1": 73005 }, "geometry": { "type": "Point", "coordinates": [ -98.431331830799309, 30.099660119419013 ] } },
{ "type": "Feature", "properties": { "OBJECTID_1": 92, "OBJECTID": 149, "Permanent_": "{5798EB47-9B40-4DA1-B3B2-5E0D19536E4B}", "Source_Fea": "482484002776", "Source_Dat": "{092B06A5-744D-461B-BB91-876E463350D0}", "Source_D_1": "TNMC VWE DB Build - Vol Update Schools", "Source_Ori": "Oak Ridge National Laboratory, Geographic Information Sciences and Technology Group", "Data_Secur": 5, "Distributi": "E4", "LoadDate": "2016\/08\/12", "FType": 730, "FCode": 73003, "Name": "LYNDON B JOHNSON ELEMENTARY SCHOOL", "IsLandmark": 2, "PointLocat": 1, "AdminType": 0, "AddressBui": null, "Address": "401 E PECAN ST", "City": "JOHNSON CITY", "State": "TX", "Zipcode": "78636", "GNIS_ID": null, "Foot_ID": null, "Complex_ID": null, "FType_1": 730, "FCode_1": 73003 }, "geometry": { "type": "Point", "coordinates": [ -98.408215591276473, 30.278055793640021 ] } },
{ "type": "Feature", "properties": { "OBJECTID_1": 93, "OBJECTID": 150, "Permanent_": "{9C28849B-FEEC-43DB-A547-15FC717C0101}", "Source_Fea": "483237003593", "Source_Dat": "{092B06A5-744D-461B-BB91-876E463350D0}", "Source_D_1": "TNMC VWE DB Build - Vol Update Schools", "Source_Ori": "Oak Ridge National Laboratory, Geographic Information Sciences and Technology Group", "Data_Secur": 5, "Distributi": "E4", "LoadDate": "2016\/08\/12", "FType": 730, "FCode": 73003, "Name": "Seele Elementary School", "IsLandmark": 2, "PointLocat": 1, "AdminType": 0, "AddressBui": null, "Address": "540 Howard Street", "City": "New Braunfels", "State": "TX", "Zipcode": "78130", "GNIS_ID": null, "Foot_ID": null, "Complex_ID": null, "FType_1": 730, "FCode_1": 73003 }, "geometry": { "type": "Point", "coordinates": [ -98.139280297747518, 29.708772591681793 ] } },
{ "type": "Feature", "properties": { "OBJECTID_1": 94, "OBJECTID": 151, "Permanent_": "{696498E7-4447-4EE2-B2D1-97DBE2212B71}", "Source_Fea": "481473011552", "Source_Dat": "{CC19ABE0-361F-4846-B852-AA57C04368C8}", "Source_D_1": "NSD TNMC VWE Database Build - Reviewed Schools", "Source_Ori": "Oak Ridge National Laboratory, Geographic Information Sciences and Technology Group", "Data_Secur": 5, "Distributi": "E4", "LoadDate": "2011\/12\/20", "FType": 730, "FCode": 73004, "Name": "CHURCH HILL MIDDLE SCHOOL", "IsLandmark": 2, "PointLocat": 1, "AdminType": 0, "AddressBui": null, "Address": "1275 N BUSINESS 35", "City": "New Braunfels", "State": "TX", "Zipcode": "78130", "GNIS_ID": null, "Foot_ID": null, "Complex_ID": null, "FType_1": 730, "FCode_1": 73004 }, "geometry": { "type": "Point", "coordinates": [ -98.0959534670788, 29.704277072329091 ] } },
{ "type": "Feature", "properties": { "OBJECTID_1": 95, "OBJECTID": 152, "Permanent_": "{DF7C19D2-9329-4728-8534-DF8919B10152}", "Source_Fea": "481473000967", "Source_Dat": "{CC19ABE0-361F-4846-B852-AA57C04368C8}", "Source_D_1": "NSD TNMC VWE Database Build - Reviewed Schools", "Source_Ori": "Oak Ridge National Laboratory, Geographic Information Sciences and Technology Group", "Data_Secur": 5, "Distributi": "E4", "LoadDate": "2011\/12\/20", "FType": 730, "FCode": 73005, "Name": "CANYON HIGH SCHOOL", "IsLandmark": 2, "PointLocat": 1, "AdminType": 0, "AddressBui": null, "Address": "1510 IH 35 E", "City": "New Braunfels", "State": "TX", "Zipcode": "78130", "GNIS_ID": null, "Foot_ID": null, "Complex_ID": null, "FType_1": 730, "FCode_1": 73005 }, "geometry": { "type": "Point", "coordinates": [ -98.087846401690058, 29.709388079596238 ] } },
{ "type": "Feature", "properties": { "OBJECTID_1": 96, "OBJECTID": 153, "Permanent_": "{88B0E745-98EC-4167-B6AC-C9D0F76A2D7A}", "Source_Fea": "481473011948", "Source_Dat": "{CC19ABE0-361F-4846-B852-AA57C04368C8}", "Source_D_1": "NSD TNMC VWE Database Build - Reviewed Schools", "Source_Ori": "Oak Ridge National Laboratory, Geographic Information Sciences and Technology Group", "Data_Secur": 5, "Distributi": "E4", "LoadDate": "2011\/12\/20", "FType": 730, "FCode": 73002, "Name": "MT VALLEY MIDDLE", "IsLandmark": 2, "PointLocat": 1, "AdminType": 0, "AddressBui": null, "Address": "1404 IH 35 N", "City": "New Braunfels", "State": "TX", "Zipcode": "78130", "GNIS_ID": null, "Foot_ID": null, "Complex_ID": null, "FType_1": 730, "FCode_1": 73002 }, "geometry": { "type": "Point", "coordinates": [ -98.168339243860999, 29.849733783387421 ] } },
{ "type": "Feature", "properties": { "OBJECTID_1": 97, "OBJECTID": 154, "Permanent_": "{008AD831-6706-4557-9148-8CB4C1C1B23A}", "Source_Fea": "480000906198", "Source_Dat": "{092B06A5-744D-461B-BB91-876E463350D0}", "Source_D_1": "TNMC VWE DB Build - Vol Update Schools", "Source_Ori": "Oak Ridge National Laboratory, Geographic Information Sciences and Technology Group", "Data_Secur": 5, "Distributi": "E4", "LoadDate": "2015\/03\/30", "FType": 730, "FCode": 73005, "Name": "Wimberley High School", "IsLandmark": 2, "PointLocat": 1, "AdminType": 0, "AddressBui": null, "Address": "100 Carney Lane", "City": "Wimberley", "State": "TX", "Zipcode": "78676", "GNIS_ID": "2006638", "Foot_ID": null, "Complex_ID": null, "FType_1": 730, "FCode_1": 73005 }, "geometry": { "type": "Point", "coordinates": [ -98.117172413176263, 30.005169102971763 ] } },
{ "type": "Feature", "properties": { "OBJECTID_1": 98, "OBJECTID": 159, "Permanent_": "{6B25AAC3-2106-496F-BFAE-0C65A194F254}", "Source_Fea": "480001005244", "Source_Dat": "{092B06A5-744D-461B-BB91-876E463350D0}", "Source_D_1": "TNMC VWE DB Build - Vol Update Schools", "Source_Ori": "Oak Ridge National Laboratory, Geographic Information Sciences and Technology Group", "Data_Secur": 5, "Distributi": "E4", "LoadDate": "2014\/06\/25", "FType": 730, "FCode": 73005, "Name": "Jack C Hays High School", "IsLandmark": 2, "PointLocat": 1, "AdminType": 0, "AddressBui": null, "Address": "4800 Jack C Hays Trail", "City": "Buda", "State": "TX", "Zipcode": "78610", "GNIS_ID": null, "Foot_ID": null, "Complex_ID": null, "FType_1": 730, "FCode_1": 73005 }, "geometry": { "type": "Point", "coordinates": [ -97.889725517518571, 30.03170260349242 ] } },
{ "type": "Feature", "properties": { "OBJECTID_1": 99, "OBJECTID": 160, "Permanent_": "{2C6BF6CF-254B-4125-88E8-6125D1741C09}", "Source_Fea": "480001008838", "Source_Dat": "{092B06A5-744D-461B-BB91-876E463350D0}", "Source_D_1": "TNMC VWE DB Build - Vol Update Schools", "Source_Ori": "Oak Ridge National Laboratory, Geographic Information Sciences and Technology Group", "Data_Secur": 5, "Distributi": "E4", "LoadDate": "2014\/06\/25", "FType": 730, "FCode": 73003, "Name": "Elm Grove Elementary School", "IsLandmark": 2, "PointLocat": 1, "AdminType": 0, "AddressBui": null, "Address": "801 Farm To Market Road 1626", "City": "Buda", "State": "TX", "Zipcode": "78610", "GNIS_ID": null, "Foot_ID": null, "Complex_ID": null, "FType_1": 730, "FCode_1": 73003 }, "geometry": { "type": "Point", "coordinates": [ -97.873267649782179, 30.089143175816957 ] } },
{ "type": "Feature", "properties": { "OBJECTID_1": 100, "OBJECTID": 162, "Permanent_": "{2DCDAFF0-257A-49A7-96DB-8E81691CEEB5}", "Source_Fea": "480001009290", "Source_Dat": "{092B06A5-744D-461B-BB91-876E463350D0}", "Source_D_1": "TNMC VWE DB Build - Vol Update Schools", "Source_Ori": "Oak Ridge National Laboratory, Geographic Information Sciences and Technology Group", "Data_Secur": 5, "Distributi": "E4", "LoadDate": "2016\/08\/12", "FType": 730, "FCode": 73003, "Name": "Tobias Elementary School", "IsLandmark": 2, "PointLocat": 1, "AdminType": 0, "AddressBui": null, "Address": "1005 E FM 150", "City": "KYLE", "State": "TX", "Zipcode": "78640", "GNIS_ID": null, "Foot_ID": null, "Complex_ID": null, "FType_1": 730, "FCode_1": 73003 }, "geometry": { "type": "Point", "coordinates": [ -97.860902641643577, 29.975058154210501 ] } },
{ "type": "Feature", "properties": { "OBJECTID_1": 101, "OBJECTID": 166, "Permanent_": "{755F94BD-75DA-451A-B6A0-A797EE6D8B2D}", "Source_Fea": "481071008860", "Source_Dat": "{092B06A5-744D-461B-BB91-876E463350D0}", "Source_D_1": "TNMC VWE DB Build - Vol Update Schools", "Source_Ori": "Oak Ridge National Laboratory, Geographic Information Sciences and Technology Group", "Data_Secur": 5, "Distributi": "E4", "LoadDate": "2016\/08\/12", "FType": 730, "FCode": 73003, "Name": "Kendall Elementary School", "IsLandmark": 2, "PointLocat": 1, "AdminType": 0, "AddressBui": null, "Address": "141 Old San Antonio Road", "City": "Boerne", "State": "TX", "Zipcode": "78006", "GNIS_ID": null, "Foot_ID": null, "Complex_ID": null, "FType_1": 730, "FCode_1": 73003 }, "geometry": { "type": "Point", "coordinates": [ -98.702973139398807, 29.762312181961704 ] } },
{ "type": "Feature", "properties": { "OBJECTID_1": 102, "OBJECTID": 167, "Permanent_": "{1FE4F4EE-C912-4A48-A6C5-E7FAEF74B655}", "Source_Fea": "A0503410", "Source_Dat": "{092B06A5-744D-461B-BB91-876E463350D0}", "Source_D_1": "TNMC VWE DB Build - Vol Update Schools", "Source_Ori": "Oak Ridge National Laboratory, Geographic Information Sciences and Technology Group", "Data_Secur": 5, "Distributi": "E4", "LoadDate": "2016\/08\/12", "FType": 730, "FCode": 73002, "Name": "Geneva School of Boerne", "IsLandmark": 2, "PointLocat": 1, "AdminType": 0, "AddressBui": null, "Address": "113 Cascade Caverns Road", "City": "Boerne", "State": "TX", "Zipcode": "78015", "GNIS_ID": null, "Foot_ID": null, "Complex_ID": null, "FType_1": 730, "FCode_1": 73002 }, "geometry": { "type": "Point", "coordinates": [ -98.690687635825725, 29.750589580244991 ] } },
{ "type": "Feature", "properties": { "OBJECTID_1": 103, "OBJECTID": 168, "Permanent_": "{9F6F8DF0-B17C-487D-9AE5-234D0042B6DA}", "Source_Fea": "481071000538", "Source_Dat": "{092B06A5-744D-461B-BB91-876E463350D0}", "Source_D_1": "TNMC VWE DB Build - Vol Update Schools", "Source_Ori": "Oak Ridge National Laboratory, Geographic Information Sciences and Technology Group", "Data_Secur": 5, "Distributi": "E4", "LoadDate": "2016\/08\/12", "FType": 730, "FCode": 73003, "Name": "Curington Elementary School", "IsLandmark": 2, "PointLocat": 1, "AdminType": 0, "AddressBui": null, "Address": "601 Adler Road", "City": "Boerne", "State": "TX", "Zipcode": "78006", "GNIS_ID": null, "Foot_ID": null, "Complex_ID": null, "FType_1": 730, "FCode_1": 73003 }, "geometry": { "type": "Point", "coordinates": [ -98.727699747245481, 29.80343838957009 ] } },
{ "type": "Feature", "properties": { "OBJECTID_1": 104, "OBJECTID": 170, "Permanent_": "{CCB72BAD-37E6-44FB-ADCA-5BD5A2B1C07B}", "Source_Fea": "481473007559", "Source_Dat": "{CC19ABE0-361F-4846-B852-AA57C04368C8}", "Source_D_1": "NSD TNMC VWE Database Build - Reviewed Schools", "Source_Ori": "Oak Ridge National Laboratory, Geographic Information Sciences and Technology Group", "Data_Secur": 5, "Distributi": "E4", "LoadDate": "2011\/12\/20", "FType": 730, "FCode": 73004, "Name": "SPRING BRANCH MIDDLE", "IsLandmark": 2, "PointLocat": 1, "AdminType": 0, "AddressBui": null, "Address": "21053 HWY 46 W", "City": "Spring Branch", "State": "TX", "Zipcode": "78070", "GNIS_ID": null, "Foot_ID": null, "Complex_ID": null, "FType_1": 730, "FCode_1": 73004 }, "geometry": { "type": "Point", "coordinates": [ -98.43519998399205, 29.797438120972572 ] } },
{ "type": "Feature", "properties": { "OBJECTID_1": 105, "OBJECTID": 171, "Permanent_": "{00310BA0-56F8-49D5-87AF-C1AE7F67083A}", "Source_Fea": "481473007227", "Source_Dat": "{CC19ABE0-361F-4846-B852-AA57C04368C8}", "Source_D_1": "NSD TNMC VWE Database Build - Reviewed Schools", "Source_Ori": "Oak Ridge National Laboratory, Geographic Information Sciences and Technology Group", "Data_Secur": 5, "Distributi": "E4", "LoadDate": "2011\/12\/20", "FType": 730, "FCode": 73004, "Name": "ARLON R SEAY INTERMEDIATE", "IsLandmark": 2, "PointLocat": 1, "AdminType": 0, "AddressBui": null, "Address": "20911 HWY 46 W", "City": "Spring Branch", "State": "TX", "Zipcode": "78070", "GNIS_ID": null, "Foot_ID": null, "Complex_ID": null, "FType_1": 730, "FCode_1": 73004 }, "geometry": { "type": "Point", "coordinates": [ -98.433571372920483, 29.795142184164547 ] } },
{ "type": "Feature", "properties": { "OBJECTID_1": 106, "OBJECTID": 172, "Permanent_": "{13B6175F-9ED8-4894-B4B8-7BB077F7D293}", "Source_Fea": "481032000419", "Source_Dat": "{CC19ABE0-361F-4846-B852-AA57C04368C8}", "Source_D_1": "NSD TNMC VWE Database Build - Reviewed Schools", "Source_Ori": "Oak Ridge National Laboratory, Geographic Information Sciences and Technology Group", "Data_Secur": 5, "Distributi": "E4", "LoadDate": "2011\/12\/20", "FType": 730, "FCode": 73004, "Name": "BLANCO MIDDLE", "IsLandmark": 2, "PointLocat": 1, "AdminType": 0, "AddressBui": null, "Address": "1500 ROCKY RD", "City": "Blanco", "State": "TX", "Zipcode": "78606", "GNIS_ID": null, "Foot_ID": null, "Complex_ID": null, "FType_1": 730, "FCode_1": 73004 }, "geometry": { "type": "Point", "coordinates": [ -98.430279927076924, 30.106427364930994 ] } },
{ "type": "Feature", "properties": { "OBJECTID_1": 107, "OBJECTID": 175, "Permanent_": "{792AABBD-9D3D-4F0C-AE38-6A86FF0CD291}", "Source_Fea": "483237007840", "Source_Dat": "{CC19ABE0-361F-4846-B852-AA57C04368C8}", "Source_D_1": "NSD TNMC VWE Database Build - Reviewed Schools", "Source_Ori": "Oak Ridge National Laboratory, Geographic Information Sciences and Technology Group", "Data_Secur": 5, "Distributi": "E4", "LoadDate": "2011\/12\/20", "FType": 730, "FCode": 73005, "Name": "THE NBISD LEARNING CENTER", "IsLandmark": 2, "PointLocat": 1, "AdminType": 0, "AddressBui": null, "Address": "902 W SAN ANTONIO", "City": "New Braunfels", "State": "TX", "Zipcode": "78130", "GNIS_ID": null, "Foot_ID": null, "Complex_ID": null, "FType_1": 730, "FCode_1": 73005 }, "geometry": { "type": "Point", "coordinates": [ -98.131716695369164, 29.695945407554575 ] } },
{ "type": "Feature", "properties": { "OBJECTID_1": 108, "OBJECTID": 176, "Permanent_": "{CF83E5DA-7662-410B-8D17-1AC43938EE31}", "Source_Fea": "368540", "Source_Dat": "{092B06A5-744D-461B-BB91-876E463350D0}", "Source_D_1": "TNMC VWE DB Build - Vol Update Schools", "Source_Ori": "Oak Ridge National Laboratory, Geographic Information Sciences and Technology Group", "Data_Secur": 5, "Distributi": "E4", "LoadDate": "2016\/08\/12", "FType": 730, "FCode": 73006, "Name": "Seguin Beauty School", "IsLandmark": 2, "PointLocat": 1, "AdminType": 0, "AddressBui": null, "Address": "214 West San Antonio Street", "City": "New Braunfels", "State": "TX", "Zipcode": "78130", "GNIS_ID": null, "Foot_ID": null, "Complex_ID": null, "FType_1": 730, "FCode_1": 73006 }, "geometry": { "type": "Point", "coordinates": [ -98.125957994565738, 29.701879990569182 ] } },
{ "type": "Feature", "properties": { "OBJECTID_1": 109, "OBJECTID": 178, "Permanent_": "{8EE3DEF0-1BA6-41EF-81B1-47E937C3F803}", "Source_Fea": "483237006762", "Source_Dat": "{CC19ABE0-361F-4846-B852-AA57C04368C8}", "Source_D_1": "NSD TNMC VWE Database Build - Reviewed Schools", "Source_Ori": "Oak Ridge National Laboratory, Geographic Information Sciences and Technology Group", "Data_Secur": 5, "Distributi": "E4", "LoadDate": "2011\/12\/20", "FType": 730, "FCode": 73002, "Name": "MEMORIAL EL", "IsLandmark": 2, "PointLocat": 1, "AdminType": 0, "AddressBui": null, "Address": "1900 S WALNUT", "City": "New Braunfels", "State": "TX", "Zipcode": "78130", "GNIS_ID": null, "Foot_ID": null, "Complex_ID": null, "FType_1": 730, "FCode_1": 73002 }, "geometry": { "type": "Point", "coordinates": [ -98.119421086114187, 29.672464477653591 ] } },
{ "type": "Feature", "properties": { "OBJECTID_1": 110, "OBJECTID": 179, "Permanent_": "{1BDF8686-95D7-4895-93A0-56946BD10BDF}", "Source_Fea": "481473000970", "Source_Dat": "{CC19ABE0-361F-4846-B852-AA57C04368C8}", "Source_D_1": "NSD TNMC VWE Database Build - Reviewed Schools", "Source_Ori": "Oak Ridge National Laboratory, Geographic Information Sciences and Technology Group", "Data_Secur": 5, "Distributi": "E4", "LoadDate": "2011\/12\/20", "FType": 730, "FCode": 73002, "Name": "GOODWIN FRAZIER ELEMENTARY SCHOOL", "IsLandmark": 2, "PointLocat": 1, "AdminType": 0, "AddressBui": null, "Address": "1441 N BUSINESS 35", "City": "New Braunfels", "State": "TX", "Zipcode": "78130", "GNIS_ID": null, "Foot_ID": null, "Complex_ID": null, "FType_1": 730, "FCode_1": 73002 }, "geometry": { "type": "Point", "coordinates": [ -98.093766084737013, 29.708934546991827 ] } },
{ "type": "Feature", "properties": { "OBJECTID_1": 111, "OBJECTID": 180, "Permanent_": "{A44FA687-4399-46DD-8020-C375BD90A950}", "Source_Fea": "481473011815", "Source_Dat": "{CC19ABE0-361F-4846-B852-AA57C04368C8}", "Source_D_1": "NSD TNMC VWE Database Build - Reviewed Schools", "Source_Ori": "Oak Ridge National Laboratory, Geographic Information Sciences and Technology Group", "Data_Secur": 5, "Distributi": "E4", "LoadDate": "2011\/12\/20", "FType": 730, "FCode": 73002, "Name": "JOHNSON RANCH AREA EL", "IsLandmark": 2, "PointLocat": 1, "AdminType": 0, "AddressBui": null, "Address": "1404 IH 35 N", "City": "New Braunfels", "State": "TX", "Zipcode": "78130", "GNIS_ID": null, "Foot_ID": null, "Complex_ID": null, "FType_1": 730, "FCode_1": 73002 }, "geometry": { "type": "Point", "coordinates": [ -98.091397685954405, 29.704785092158318 ] } },
{ "type": "Feature", "properties": { "OBJECTID_1": 112, "OBJECTID": 181, "Permanent_": "{3A8049AF-4CF1-43FC-B918-B85B671EDBFF}", "Source_Fea": "481473010533", "Source_Dat": "{CC19ABE0-361F-4846-B852-AA57C04368C8}", "Source_D_1": "NSD TNMC VWE Database Build - Reviewed Schools", "Source_Ori": "Oak Ridge National Laboratory, Geographic Information Sciences and Technology Group", "Data_Secur": 5, "Distributi": "E4", "LoadDate": "2011\/12\/20", "FType": 730, "FCode": 73002, "Name": "CANYON LAKE HIGH SCHOOL", "IsLandmark": 2, "PointLocat": 1, "AdminType": 0, "AddressBui": null, "Address": "8555 FM 32", "City": "Fischer", "State": "TX", "Zipcode": "78623", "GNIS_ID": null, "Foot_ID": null, "Complex_ID": null, "FType_1": 730, "FCode_1": 73002 }, "geometry": { "type": "Point", "coordinates": [ -98.214446291762897, 29.943847105259749 ] } },
{ "type": "Feature", "properties": { "OBJECTID_1": 113, "OBJECTID": 184, "Permanent_": "{45024AED-930E-43E9-8213-A273F5112C28}", "Source_Fea": "480000806989", "Source_Dat": "{092B06A5-744D-461B-BB91-876E463350D0}", "Source_D_1": "TNMC VWE DB Build - Vol Update Schools", "Source_Ori": "Oak Ridge National Laboratory, Geographic Information Sciences and Technology Group", "Data_Secur": 5, "Distributi": "E4", "LoadDate": "2016\/08\/12", "FType": 730, "FCode": 73003, "Name": "WALNUT SPRINGS ELEMENTARY SCHOOL", "IsLandmark": 2, "PointLocat": 1, "AdminType": 0, "AddressBui": null, "Address": "300 SPORTSPLEX DR", "City": "Dripping Springs", "State": "TX", "Zipcode": "78620", "GNIS_ID": null, "Foot_ID": null, "Complex_ID": null, "FType_1": 730, "FCode_1": 73003 }, "geometry": { "type": "Point", "coordinates": [ -98.094853394768336, 30.194639314852566 ] } },
{ "type": "Feature", "properties": { "OBJECTID_1": 114, "OBJECTID": 185, "Permanent_": "{C58F50F5-4092-4709-9A86-13DFE8C70F35}", "Source_Fea": "483897007035", "Source_Dat": "{092B06A5-744D-461B-BB91-876E463350D0}", "Source_D_1": "TNMC VWE DB Build - Vol Update Schools", "Source_Ori": "Oak Ridge National Laboratory, Geographic Information Sciences and Technology Group", "Data_Secur": 5, "Distributi": "E4", "LoadDate": "2016\/08\/12", "FType": 730, "FCode": 73004, "Name": "Doris Miller Middle School", "IsLandmark": 2, "PointLocat": 1, "AdminType": 0, "AddressBui": null, "Address": "301 FOXTAIL RUN", "City": "SAN MARCOS", "State": "TX", "Zipcode": "78666", "GNIS_ID": null, "Foot_ID": null, "Complex_ID": null, "FType_1": 730, "FCode_1": 73004 }, "geometry": { "type": "Point", "coordinates": [ -97.971613163216887, 29.857724726514959 ] } },
{ "type": "Feature", "properties": { "OBJECTID_1": 115, "OBJECTID": 186, "Permanent_": "{F0C7034D-BCF3-48FC-85F3-340151FA6177}", "Source_Fea": "483897004452", "Source_Dat": "{092B06A5-744D-461B-BB91-876E463350D0}", "Source_D_1": "TNMC VWE DB Build - Vol Update Schools", "Source_Ori": "Oak Ridge National Laboratory, Geographic Information Sciences and Technology Group", "Data_Secur": 5, "Distributi": "E4", "LoadDate": "2015\/10\/30", "FType": 730, "FCode": 73005, "Name": "San Marcos High School", "IsLandmark": 2, "PointLocat": 1, "AdminType": 0, "AddressBui": null, "Address": "2601 East McCarty Lane", "City": "San Marcos", "State": "TX", "Zipcode": "78666", "GNIS_ID": "2006635", "Foot_ID": null, "Complex_ID": null, "FType_1": 730, "FCode_1": 73005 }, "geometry": { "type": "Point", "coordinates": [ -97.949479641672099, 29.823231385919769 ] } },
{ "type": "Feature", "properties": { "OBJECTID_1": 116, "OBJECTID": 191, "Permanent_": "{C71770CF-E10C-45DF-AA37-1FEB03CC8A46}", "Source_Fea": "480000811280", "Source_Dat": "{092B06A5-744D-461B-BB91-876E463350D0}", "Source_D_1": "TNMC VWE DB Build - Vol Update Schools", "Source_Ori": "Oak Ridge National Laboratory, Geographic Information Sciences and Technology Group", "Data_Secur": 5, "Distributi": "E4", "LoadDate": "2016\/08\/12", "FType": 730, "FCode": 73003, "Name": "Rooster Springs Elementary School", "IsLandmark": 2, "PointLocat": 1, "AdminType": 0, "AddressBui": null, "Address": "1001 BELTERRA DR", "City": "AUSTIN", "State": "TX", "Zipcode": "78737", "GNIS_ID": null, "Foot_ID": null, "Complex_ID": null, "FType_1": 730, "FCode_1": 73003 }, "geometry": { "type": "Point", "coordinates": [ -97.982921681989978, 30.192178192369738 ] } },
{ "type": "Feature", "properties": { "OBJECTID_1": 117, "OBJECTID": 195, "Permanent_": "{23248158-2C52-4756-ACA8-5E5688E7C0E8}", "Source_Fea": "480001011534", "Source_Dat": "{CC19ABE0-361F-4846-B852-AA57C04368C8}", "Source_D_1": "NSD TNMC VWE Database Build - Reviewed Schools", "Source_Ori": "Oak Ridge National Laboratory, Geographic Information Sciences and Technology Group", "Data_Secur": 5, "Distributi": "E4", "LoadDate": "2011\/12\/20", "FType": 730, "FCode": 73002, "Name": "NEW EL #6", "IsLandmark": 2, "PointLocat": 1, "AdminType": 0, "AddressBui": null, "Address": "21003 IH 35", "City": "Kyle", "State": "TX", "Zipcode": "78640", "GNIS_ID": null, "Foot_ID": null, "Complex_ID": null, "FType_1": 730, "FCode_1": 73002 }, "geometry": { "type": "Point", "coordinates": [ -97.862237643852154, 30.009495161272753 ] } }
]
}
